1568394000058;N;$GNRMC,170000.00,A,5230.28156,N,01311.57054,E,1.887,169.28,130919,,,D*7F
1568394000061;N;$GNVTG,169.28,T,,M,1.887,N,3.495,K,D*2F
1568394000066;N;$GNGGA,170000.00,5230.28156,N,01311.57054,E,2,12,0.70,29.2,M,42.4,M,,0000*75
1568394000066;N;$GNGSA,A,3,07,16,29,03,05,02,06,23,30,26,,,1.33,0.70,1.14*11
1568394000066;N;$GNGSA,A,3,66,75,65,,,,,,,,,,1.33,0.70,1.14*1F
1568394000066;N;$GPGSV,4,1,15,02,37,292,32,03,12,126,38,05,11,302,36,06,43,227,28*75
1568394000067;N;$GPGSV,4,2,15,07,47,175,40,09,81,069,26,16,19,062,31,23,44,076,34*7D
1568394000067;N;$GPGSV,4,3,15,26,13,035,33,29,07,345,33,30,18,196,39,36,28,157,36*73
1568394000067;N;$GPGSV,4,4,15,40,19,132,,41,03,106,,49,30,190,34*41
1568394000067;N;$GLGSV,3,1,11,65,46,087,33,66,60,311,32,67,11,288,,72,04,099,*6F
1568394000067;N;$GLGSV,3,2,11,74,24,029,,75,51,095,35,76,27,156,,81,26,254,*6E
1568394000067;N;$GLGSV,3,3,11,82,30,312,,83,08,356,,88,01,216,*5B
1568394000069;N;$GNGLL,5230.28156,N,01311.57054,E,170000.00,A,D*79
1568394001054;N;$GNRMC,170001.00,A,5230.28107,N,01311.57082,E,1.919,167.28,130919,,,D*79
1568394001057;N;$GNVTG,167.28,T,,M,1.919,N,3.553,K,D*2C
1568394001061;N;$GNGGA,170001.00,5230.28107,N,01311.57082,E,2,12,0.70,29.5,M,42.4,M,,0000*7C
1568394001062;N;$GNGSA,A,3,07,16,29,03,05,02,06,23,30,26,,,1.33,0.70,1.14*11
1568394001062;N;$GNGSA,A,3,66,75,65,,,,,,,,,,1.33,0.70,1.14*1F
1568394001062;N;$GPGSV,4,1,15,02,37,292,30,03,12,126,37,05,11,302,36,06,43,227,30*71
1568394001062;N;$GPGSV,4,2,15,07,47,175,40,09,81,069,27,16,19,062,31,23,44,076,34*7C
1568394001062;N;$GPGSV,4,3,15,26,13,035,33,29,07,345,33,30,18,196,39,36,28,157,36*73
1568394001063;N;$GPGSV,4,4,15,40,19,132,,41,03,106,,49,30,190,35*40
1568394001063;N;$GLGSV,3,1,11,65,46,087,33,66,60,311,32,67,11,288,,72,04,099,*6F
1568394001063;N;$GLGSV,3,2,11,74,24,029,,75,51,095,35,76,27,156,,81,25,254,*6D
1568394001063;N;$GLGSV,3,3,11,82,30,312,,83,08,356,,88,01,216,*5B
1568394001065;N;$GNGLL,5230.28107,N,01311.57082,E,170001.00,A,D*77
1568394002054;N;$GNRMC,170002.00,A,5230.28062,N,01311.57113,E,1.919,167.20,130919,,,D*79
1568394002057;N;$GNVTG,167.20,T,,M,1.919,N,3.554,K,D*23
1568394002061;N;$GNGGA,170002.00,5230.28062,N,01311.57113,E,2,12,0.69,29.8,M,42.4,M,,0000*71
1568394002062;N;$GNGSA,A,3,07,16,29,03,09,05,02,06,23,30,26,,1.22,0.69,1.00*15
1568394002062;N;$GNGSA,A,3,66,75,65,,,,,,,,,,1.22,0.69,1.00*12
1568394002062;N;$GPGSV,4,1,15,02,37,292,29,03,12,126,37,05,11,302,35,06,43,227,30*7A
1568394002062;N;$GPGSV,4,2,15,07,47,175,38,09,81,069,29,16,19,062,30,23,44,076,33*7B
1568394002063;N;$GPGSV,4,3,15,26,13,035,33,29,07,345,33,30,18,196,40,36,28,157,36*7D
1568394002063;N;$GPGSV,4,4,15,40,19,132,,41,03,106,,49,30,190,34*41
1568394002063;N;$GLGSV,3,1,11,65,46,087,31,66,60,311,32,67,11,288,,72,04,099,*6D
1568394002063;N;$GLGSV,3,2,11,74,24,029,,75,51,095,33,76,27,156,,81,25,254,*6B
1568394002063;N;$GLGSV,3,3,11,82,30,311,,83,08,356,,88,01,216,*58
1568394002065;N;$GNGLL,5230.28062,N,01311.57113,E,170002.00,A,D*7F
1568394002189;signalk-raspberry-pi-bme280;{"context":"vessels.urn:mrn:signalk:uuid:b5f70ffb-2930-4faf-8723-4b5670b6a7d3","updates":[{"source":{"label":"signalk-raspberry-pi-bme280"},"timestamp":"2019-09-13T17:00:02.189Z","values":[{"path":"environment.inside.salon.temperature","value":295.76},{"path":"environment.inside.salon.humidity","value":40.75567599308512},{"path":"environment.inside.salon.pressure","value":102802.55757774173}]}]}
1568394003055;N;$GNRMC,170003.00,A,5230.28012,N,01311.57135,E,1.888,168.72,130919,,,D*7A
1568394003056;N;$GNVTG,168.72,T,,M,1.888,N,3.497,K,D*2C
1568394003059;N;$GNGGA,170003.00,5230.28012,N,01311.57135,E,2,12,0.69,29.8,M,42.4,M,,0000*73
1568394003059;N;$GNGSA,A,3,07,16,29,03,09,05,02,06,23,30,26,,1.22,0.69,1.00*15
1568394003059;N;$GNGSA,A,3,66,75,65,,,,,,,,,,1.22,0.69,1.00*12
1568394003059;N;$GPGSV,4,1,15,02,37,292,29,03,12,126,38,05,11,302,35,06,43,227,30*75
1568394003059;N;$GPGSV,4,2,15,07,47,175,39,09,81,069,32,16,19,062,31,23,44,076,30*72
1568394003059;N;$GPGSV,4,3,15,26,13,035,32,29,07,345,34,30,18,196,39,36,28,157,37*74
1568394003059;N;$GPGSV,4,4,15,40,19,132,,41,03,106,,49,30,190,34*41
1568394003059;N;$GLGSV,3,1,11,65,46,087,35,66,60,311,32,67,11,288,,72,04,099,*69
1568394003059;N;$GLGSV,3,2,11,74,24,029,,75,51,095,34,76,27,156,,81,25,254,*6C
1568394003059;N;$GLGSV,3,3,11,82,30,311,,83,08,356,,88,01,216,*58
1568394003061;N;$GNGLL,5230.28012,N,01311.57135,E,170003.00,A,D*7D
1568394004058;N;$GNRMC,170004.00,A,5230.27960,N,01311.57155,E,1.939,170.00,130919,,,D*7F
1568394004060;N;$GNVTG,170.00,T,,M,1.939,N,3.592,K,D*2F
1568394004065;N;$GNGGA,170004.00,5230.27960,N,01311.57155,E,2,12,0.67,29.6,M,42.4,M,,0000*71
1568394004065;N;$GNGSA,A,3,07,16,29,03,09,05,02,06,23,30,26,,1.17,0.67,0.96*13
1568394004065;N;$GNGSA,A,3,66,75,65,,,,,,,,,,1.17,0.67,0.96*14
1568394004066;N;$GPGSV,4,1,15,02,37,292,30,03,12,126,38,05,11,302,35,06,43,227,34*79
1568394004066;N;$GPGSV,4,2,15,07,47,175,39,09,81,069,28,16,19,062,31,23,44,076,30*79
1568394004066;N;$GPGSV,4,3,15,26,13,035,33,29,07,345,34,30,18,196,39,36,28,157,37*75
1568394004066;N;$GPGSV,4,4,15,40,19,132,,41,03,106,,49,30,190,35*40
1568394004066;N;$GLGSV,3,1,11,65,46,087,26,66,60,311,32,67,11,288,,72,04,099,*6B
1568394004067;N;$GLGSV,3,2,11,74,24,029,,75,51,095,35,76,27,156,,81,25,254,*6D
1568394004067;N;$GLGSV,3,3,11,82,30,311,,83,08,356,,88,01,216,*58
1568394004068;N;$GNGLL,5230.27960,N,01311.57155,E,170004.00,A,D*7F
1568394005058;N;$GNRMC,170005.00,A,5230.27910,N,01311.57179,E,1.921,166.79,130919,,,D*77
1568394005060;N;$GNVTG,166.79,T,,M,1.921,N,3.557,K,D*26
1568394005065;N;$GNGGA,170005.00,5230.27910,N,01311.57179,E,2,12,0.67,29.7,M,42.4,M,,0000*78
1568394005065;N;$GNGSA,A,3,07,16,29,03,09,05,02,06,23,30,26,,1.17,0.67,0.96*13
1568394005065;N;$GNGSA,A,3,66,75,65,,,,,,,,,,1.17,0.67,0.96*14
1568394005066;N;$GPGSV,4,1,15,02,37,292,29,03,12,126,38,05,11,302,35,06,43,227,32*77
1568394005066;N;$GPGSV,4,2,15,07,47,175,39,09,81,069,27,16,19,062,32,23,44,076,34*71
1568394005066;N;$GPGSV,4,3,15,26,13,035,33,29,07,345,34,30,18,196,39,36,28,157,36*74
1568394005066;N;$GPGSV,4,4,15,40,19,132,,41,03,106,,49,30,190,34*41
1568394005066;N;$GLGSV,3,1,11,65,46,087,35,66,60,311,32,67,11,288,,72,04,099,*69
1568394005067;N;$GLGSV,3,2,11,74,24,029,,75,51,095,35,76,27,156,,81,25,254,*6D
1568394005067;N;$GLGSV,3,3,11,82,30,311,,83,08,356,,88,01,216,*58
1568394005068;N;$GNGLL,5230.27910,N,01311.57179,E,170005.00,A,D*77
1568394006057;N;$GNRMC,170006.00,A,5230.27860,N,01311.57202,E,1.891,167.66,130919,,,D*78
1568394006059;N;$GNVTG,167.66,T,,M,1.891,N,3.502,K,D*23
1568394006064;N;$GNGGA,170006.00,5230.27860,N,01311.57202,E,2,12,0.67,29.5,M,42.4,M,,0000*70
1568394006064;N;$GNGSA,A,3,07,16,29,03,09,05,02,06,23,30,26,,1.17,0.67,0.96*13
1568394006064;N;$GNGSA,A,3,66,75,65,,,,,,,,,,1.17,0.67,0.96*14
1568394006065;N;$GPGSV,4,1,15,02,37,292,29,03,12,126,37,05,11,302,36,06,43,227,32*7B
1568394006065;N;$GPGSV,4,2,15,07,47,175,40,09,81,069,28,16,19,062,31,23,44,076,32*75
1568394006065;N;$GPGSV,4,3,15,26,13,035,32,29,07,345,34,30,18,196,39,36,28,157,36*75
1568394006065;N;$GPGSV,4,4,15,40,19,132,,41,03,106,,49,30,190,34*41
1568394006065;N;$GLGSV,3,1,11,65,46,087,34,66,60,311,31,67,11,288,,72,04,099,*6B
1568394006066;N;$GLGSV,3,2,11,74,24,029,,75,51,095,34,76,27,156,,81,25,254,*6C
1568394006066;N;$GLGSV,3,3,11,82,30,311,,83,08,356,,88,01,216,*58
1568394006067;N;$GNGLL,5230.27860,N,01311.57202,E,170006.00,A,D*7D
1568394007057;N;$GNRMC,170007.00,A,5230.27810,N,01311.57225,E,1.929,168.14,130919,,,D*73
1568394007060;N;$GNVTG,168.14,T,,M,1.929,N,3.572,K,D*2C
1568394007064;N;$GNGGA,170007.00,5230.27810,N,01311.57225,E,2,12,0.68,29.6,M,42.4,M,,0000*7F
1568394007065;N;$GNGSA,A,3,07,16,29,03,05,02,06,23,30,26,,,1.28,0.68,1.09*1E
1568394007065;N;$GNGSA,A,3,66,75,65,,,,,,,,,,1.28,0.68,1.09*10
1568394007065;N;$GPGSV,4,1,15,02,37,292,29,03,12,126,37,05,11,302,36,06,43,227,31*78
1568394007065;N;$GPGSV,4,2,15,07,47,175,38,09,81,069,26,16,19,062,31,23,44,076,31*77
1568394007065;N;$GPGSV,4,3,15,26,13,035,32,29,07,345,33,30,18,196,39,36,28,157,36*72
1568394007066;N;$GPGSV,4,4,15,40,19,132,,41,03,106,,49,30,190,33*46
1568394007066;N;$GLGSV,3,1,11,65,46,087,33,66,60,311,32,67,11,288,,72,04,099,*6F
1568394007066;N;$GLGSV,3,2,11,74,24,029,,75,51,095,31,76,27,156,,81,25,254,*69
1568394007066;N;$GLGSV,3,3,11,82,30,311,,83,08,356,,88,01,216,*58
1568394007068;N;$GNGLL,5230.27810,N,01311.57225,E,170007.00,A,D*7E
1568394008061;N;$GNRMC,170008.00,A,5230.27758,N,01311.57242,E,1.938,168.95,130919,,,D*77
1568394008064;N;$GNVTG,168.95,T,,M,1.938,N,3.589,K,D*21
1568394008068;N;$GNGGA,170008.00,5230.27758,N,01311.57242,E,2,12,0.67,29.6,M,42.4,M,,0000*7D
1568394008069;N;$GNGSA,A,3,07,16,29,03,09,05,02,06,23,30,26,,1.17,0.67,0.96*13
1568394008069;N;$GNGSA,A,3,66,75,65,,,,,,,,,,1.17,0.67,0.96*14
1568394008069;N;$GPGSV,4,1,15,02,37,292,29,03,12,126,37,05,11,302,35,06,43,227,29*72
1568394008069;N;$GPGSV,4,2,15,07,47,175,39,09,81,069,28,16,19,062,30,23,44,076,34*7C
1568394008069;N;$GPGSV,4,3,15,26,13,035,32,29,07,345,33,30,18,196,39,36,28,157,35*71
1568394008070;N;$GPGSV,4,4,15,40,19,132,,41,03,106,,49,30,190,33*46
1568394008070;N;$GLGSV,3,1,11,65,46,087,32,66,60,311,32,67,11,288,,72,04,099,*6E
1568394008070;N;$GLGSV,3,2,11,74,24,029,,75,51,095,34,76,27,156,,81,25,254,*6C
1568394008070;N;$GLGSV,3,3,11,82,30,311,,83,08,356,,88,01,216,*58
1568394008072;N;$GNGLL,5230.27758,N,01311.57242,E,170008.00,A,D*73
1568394009059;N;$GNRMC,170009.00,A,5230.27705,N,01311.57257,E,1.924,169.60,130919,,,D*7C
1568394009061;N;$GNVTG,169.60,T,,M,1.924,N,3.564,K,D*24
1568394009066;N;$GNGGA,170009.00,5230.27705,N,01311.57257,E,2,12,0.69,29.6,M,42.4,M,,0000*7E
1568394009066;N;$GNGSA,A,3,07,16,29,03,09,05,02,06,23,30,26,,1.22,0.69,1.00*15
1568394009066;N;$GNGSA,A,3,66,75,65,,,,,,,,,,1.22,0.69,1.00*12
1568394009067;N;$GPGSV,4,1,15,02,37,292,30,03,12,126,36,05,11,302,35,06,43,227,30*73
1568394009067;N;$GPGSV,4,2,15,07,47,175,39,09,81,069,27,16,19,062,30,23,44,076,34*73
1568394009067;N;$GPGSV,4,3,15,26,13,035,32,29,07,345,32,30,18,196,39,36,28,157,35*70
1568394009067;N;$GPGSV,4,4,15,40,19,132,,41,03,106,,49,30,190,33*46
1568394009067;N;$GLGSV,3,1,11,65,46,087,36,66,60,311,31,67,11,288,,72,04,099,*69
1568394009067;N;$GLGSV,3,2,11,74,24,029,,75,51,095,36,76,27,156,,81,25,254,*6E
1568394009068;N;$GLGSV,3,3,11,82,30,311,,83,08,356,,88,01,216,*58
1568394009069;N;$GNGLL,5230.27705,N,01311.57257,E,170009.00,A,D*7E
1568394010055;N;$GNRMC,170010.00,A,5230.27655,N,01311.57273,E,1.843,169.09,130919,,,D*79
1568394010057;N;$GNVTG,169.09,T,,M,1.843,N,3.413,K,D*2A
1568394010062;N;$GNGGA,170010.00,5230.27655,N,01311.57273,E,2,12,0.67,29.7,M,42.4,M,,0000*7B
1568394010063;N;$GNGSA,A,3,07,16,29,03,09,05,02,06,23,30,26,,1.17,0.67,0.96*13
1568394010063;N;$GNGSA,A,3,66,75,65,,,,,,,,,,1.17,0.67,0.96*14
1568394010063;N;$GPGSV,4,1,15,02,37,291,30,03,12,126,34,05,11,302,34,06,43,227,29*7B
1568394010063;N;$GPGSV,4,2,15,07,47,175,37,09,81,069,26,16,19,062,30,23,44,076,31*79
1568394010063;N;$GPGSV,4,3,15,26,13,035,32,29,07,345,32,30,18,196,37,36,28,157,35*7E
1568394010064;N;$GPGSV,4,4,15,40,19,132,,41,03,106,,49,30,190,32*47
1568394010064;N;$GLGSV,3,1,11,65,46,087,31,66,60,311,31,67,11,288,,72,04,099,*6E
1568394010064;N;$GLGSV,3,2,11,74,24,029,,75,51,095,35,76,27,156,,81,25,254,*6D
1568394010064;N;$GLGSV,3,3,11,82,30,311,,83,08,356,,88,01,216,*58
1568394010066;N;$GNGLL,5230.27655,N,01311.57273,E,170010.00,A,D*74
1568394011055;N;$GNRMC,170011.00,A,5230.27604,N,01311.57285,E,1.910,170.37,130919,,,D*77
1568394011058;N;$GNVTG,170.37,T,,M,1.910,N,3.537,K,D*2F
1568394011062;N;$GNGGA,170011.00,5230.27604,N,01311.57285,E,2,12,0.75,29.8,M,42.4,M,,0000*7B
1568394011063;N;$GNGSA,A,3,07,16,29,03,09,05,23,30,26,,,,1.22,0.75,0.97*13
1568394011063;N;$GNGSA,A,3,66,75,65,,,,,,,,,,1.22,0.75,0.97*10
1568394011063;N;$GPGSV,4,1,15,02,37,291,,03,12,126,33,05,11,302,29,06,43,227,*78
1568394011063;N;$GPGSV,4,2,15,07,47,175,35,09,81,069,24,16,19,062,28,23,44,076,29*79
1568394011064;N;$GPGSV,4,3,15,26,13,035,25,29,07,345,30,30,18,196,36,36,28,157,33*7D
1568394011064;N;$GPGSV,4,4,15,40,19,132,,41,03,106,,49,30,190,32*47
1568394011064;N;$GLGSV,3,1,11,65,46,087,30,66,60,311,31,67,11,288,,72,04,099,*6F
1568394011064;N;$GLGSV,3,2,11,74,24,029,,75,51,095,35,76,27,156,,81,25,254,*6D
1568394011064;N;$GLGSV,3,3,11,82,30,311,,83,08,356,,88,01,216,*58
1568394011066;N;$GNGLL,5230.27604,N,01311.57285,E,170011.00,A,D*78
1568394012053;N;$GNRMC,170012.00,A,5230.27555,N,01311.57304,E,1.841,167.54,130919,,,D*7D
1568394012055;N;$GNVTG,167.54,T,,M,1.841,N,3.410,K,D*2D
1568394012060;N;$GNGGA,170012.00,5230.27555,N,01311.57304,E,2,12,0.75,29.9,M,42.4,M,,0000*76
1568394012060;N;$GNGSA,A,3,07,16,29,03,09,05,23,30,26,,,,1.22,0.75,0.97*13
1568394012061;N;$GNGSA,A,3,66,75,65,,,,,,,,,,1.22,0.75,0.97*10
1568394012061;N;$GPGSV,4,1,15,02,37,291,,03,12,126,32,05,11,302,31,06,43,227,*70
1568394012061;N;$GPGSV,4,2,15,07,47,175,36,09,81,069,26,16,19,062,28,23,44,076,31*71
1568394012061;N;$GPGSV,4,3,15,26,13,035,27,29,07,345,30,30,18,196,38,36,28,157,34*76
1568394012061;N;$GPGSV,4,4,15,40,19,132,,41,03,106,,49,30,190,31*44
1568394012061;N;$GLGSV,3,1,11,65,46,087,31,66,60,311,29,67,11,288,,72,04,099,*67
1568394012062;N;$GLGSV,3,2,11,74,24,029,,75,51,095,34,76,27,156,,81,25,254,*6C
1568394012062;N;$GLGSV,3,3,11,82,30,311,,83,08,356,,88,01,216,*58
1568394012063;N;$GNGLL,5230.27555,N,01311.57304,E,170012.00,A,D*74
1568394013053;N;$GNRMC,170013.00,A,5230.27505,N,01311.57326,E,1.909,168.00,130919,,,D*7A
1568394013055;N;$GNVTG,168.00,T,,M,1.909,N,3.535,K,D*28
1568394013060;N;$GNGGA,170013.00,5230.27505,N,01311.57326,E,2,12,0.75,29.8,M,42.4,M,,0000*73
1568394013060;N;$GNGSA,A,3,07,16,29,03,09,05,23,30,26,,,,1.22,0.75,0.97*13
1568394013061;N;$GNGSA,A,3,66,75,65,,,,,,,,,,1.22,0.75,0.97*10
1568394013061;N;$GPGSV,4,1,15,02,37,291,,03,12,126,35,05,11,302,34,06,42,227,*73
1568394013061;N;$GPGSV,4,2,15,07,47,175,40,09,81,069,30,16,19,062,32,23,44,076,34*79
1568394013061;N;$GPGSV,4,3,15,26,13,035,28,29,07,345,30,30,18,196,39,36,28,157,36*7A
1568394013061;N;$GPGSV,4,4,15,40,19,132,,41,03,106,,49,30,190,36*43
1568394013061;N;$GLGSV,3,1,11,65,46,087,26,66,60,311,29,67,11,288,,72,04,099,*61
1568394013062;N;$GLGSV,3,2,11,74,24,029,,75,51,095,29,76,27,156,,81,25,254,*60
1568394013062;N;$GLGSV,3,3,11,82,30,311,,83,08,356,,88,01,216,*58
1568394013064;N;$GNGLL,5230.27505,N,01311.57326,E,170013.00,A,D*70
1568394014054;N;$GNRMC,170014.00,A,5230.27455,N,01311.57342,E,1.939,167.64,130919,,,D*75
1568394014057;N;$GNVTG,167.64,T,,M,1.939,N,3.591,K,D*28
1568394014061;N;$GNGGA,170014.00,5230.27455,N,01311.57342,E,2,12,0.71,29.8,M,42.4,M,,0000*76
1568394014062;N;$GNGSA,A,3,07,16,29,03,09,05,06,23,30,26,,,1.20,0.71,0.97*13
1568394014062;N;$GNGSA,A,3,66,75,65,,,,,,,,,,1.20,0.71,0.97*16
1568394014062;N;$GPGSV,4,1,15,02,37,291,25,03,12,126,35,05,11,302,33,06,42,227,31*71
1568394014062;N;$GPGSV,4,2,15,07,48,175,38,09,81,069,23,16,19,062,31,23,44,076,34*78
1568394014063;N;$GPGSV,4,3,15,26,13,035,31,29,07,345,33,30,18,196,39,36,28,157,36*71
1568394014063;N;$GPGSV,4,4,15,40,19,132,,41,03,106,,49,30,190,35*40
1568394014063;N;$GLGSV,3,1,11,65,46,087,32,66,60,311,29,67,11,288,,72,04,099,*64
1568394014063;N;$GLGSV,3,2,11,74,24,029,,75,51,095,34,76,27,156,,81,25,254,*6C
1568394014063;N;$GLGSV,3,3,11,82,30,311,,83,08,356,,88,01,216,*58
1568394014065;N;$GNGLL,5230.27455,N,01311.57342,E,170014.00,A,D*71
1568394015056;N;$GNRMC,170015.00,A,5230.27407,N,01311.57365,E,1.843,164.91,130919,,,D*73
1568394015058;N;$GNVTG,164.91,T,,M,1.843,N,3.413,K,D*26
1568394015063;N;$GNGGA,170015.00,5230.27407,N,01311.57365,E,2,12,0.71,29.8,M,42.4,M,,0000*75
1568394015063;N;$GNGSA,A,3,07,16,29,03,09,05,06,23,30,26,,,1.20,0.71,0.97*13
1568394015063;N;$GNGSA,A,3,66,75,65,,,,,,,,,,1.20,0.71,0.97*16
1568394015064;N;$GPGSV,4,1,15,02,37,291,26,03,12,126,32,05,11,302,34,06,42,227,32*71
1568394015064;N;$GPGSV,4,2,15,07,48,175,39,09,81,069,29,16,19,062,31,23,44,076,29*7F
1568394015064;N;$GPGSV,4,3,15,26,13,035,25,29,07,345,33,30,18,196,39,36,28,157,36*74
1568394015064;N;$GPGSV,4,4,15,40,19,132,,41,03,106,,49,30,190,35*40
1568394015064;N;$GLGSV,3,1,11,65,46,087,31,66,60,311,29,67,11,288,,72,04,099,*67
1568394015064;N;$GLGSV,3,2,11,74,24,029,,75,51,095,33,76,27,156,,81,25,254,*6B
1568394015065;N;$GLGSV,3,3,11,82,30,311,,83,08,356,,88,01,216,*58
1568394015066;N;$GNGLL,5230.27407,N,01311.57365,E,170015.00,A,D*72
1568394016055;N;$GNRMC,170016.00,A,5230.27355,N,01311.57385,E,1.950,167.66,130919,,,D*76
1568394016057;N;$GNVTG,167.66,T,,M,1.950,N,3.611,K,D*2E
1568394016062;N;$GNGGA,170016.00,5230.27355,N,01311.57385,E,2,12,0.73,29.7,M,42.4,M,,0000*75
1568394016062;N;$GNGSA,A,3,07,16,29,03,09,05,06,23,30,26,,,1.25,0.73,1.01*1A
1568394016062;N;$GNGSA,A,3,66,75,65,,,,,,,,,,1.25,0.73,1.01*1F
1568394016062;N;$GPGSV,4,1,15,02,37,291,25,03,12,126,35,05,11,302,33,06,42,227,28*79
1568394016063;N;$GPGSV,4,2,15,07,48,175,39,09,80,069,29,16,19,062,30,23,44,076,32*75
1568394016063;N;$GPGSV,4,3,15,26,13,035,29,29,07,345,33,30,18,196,39,36,28,157,36*78
1568394016063;N;$GPGSV,4,4,15,40,19,132,,41,03,106,,49,30,190,34*41
1568394016063;N;$GLGSV,3,1,11,65,46,087,31,66,60,311,31,67,11,288,,72,04,099,*6E
1568394016063;N;$GLGSV,3,2,11,74,24,029,,75,51,095,34,76,27,156,,81,25,254,*6C
1568394016063;N;$GLGSV,3,3,11,82,30,311,,83,08,356,,88,01,216,*58
1568394016065;N;$GNGLL,5230.27355,N,01311.57385,E,170016.00,A,D*7F
1568394017050;N;$GNRMC,170017.00,A,5230.27305,N,01311.57403,E,1.846,167.08,130919,,,D*75
1568394017053;N;$GNVTG,167.08,T,,M,1.846,N,3.419,K,D*2A
1568394017058;N;$GNGGA,170017.00,5230.27305,N,01311.57403,E,2,12,0.77,29.7,M,42.4,M,,0000*7C
1568394017058;N;$GNGSA,A,3,07,16,29,03,09,05,23,30,26,,,,1.28,0.77,1.02*16
1568394017058;N;$GNGSA,A,3,66,75,65,,,,,,,,,,1.28,0.77,1.02*15
1568394017058;N;$GPGSV,4,1,15,02,37,291,21,03,12,126,29,05,11,302,29,06,42,227,*71
1568394017059;N;$GPGSV,4,2,15,07,48,175,34,09,80,069,19,16,19,062,29,23,44,076,29*79
1568394017059;N;$GPGSV,4,3,15,26,13,035,28,29,07,345,27,30,18,196,33,36,28,157,33*73
1568394017059;N;$GPGSV,4,4,15,40,19,132,,41,03,106,,49,30,190,31*44
1568394017059;N;$GLGSV,3,1,11,65,46,087,33,66,60,311,30,67,11,288,,72,04,099,*6D
1568394017059;N;$GLGSV,3,2,11,74,24,029,,75,51,095,34,76,27,156,,81,25,254,*6C
1568394017060;N;$GLGSV,3,3,11,82,30,311,,83,08,356,,88,01,216,*58
1568394017061;N;$GNGLL,5230.27305,N,01311.57403,E,170017.00,A,D*72
1568394018051;N;$GNRMC,170018.00,A,5230.27253,N,01311.57426,E,1.908,167.13,130919,,,D*7E
1568394018053;N;$GNVTG,167.13,T,,M,1.908,N,3.533,K,D*22
1568394018058;N;$GNGGA,170018.00,5230.27253,N,01311.57426,E,2,12,0.77,29.5,M,42.4,M,,0000*74
1568394018058;N;$GNGSA,A,3,07,16,29,03,09,05,23,30,26,,,,1.28,0.77,1.02*16
1568394018058;N;$GNGSA,A,3,66,75,65,,,,,,,,,,1.28,0.77,1.02*15
1568394018059;N;$GPGSV,4,1,15,02,37,291,,03,12,126,35,05,11,302,34,06,42,227,*73
1568394018059;N;$GPGSV,4,2,15,07,48,175,40,09,80,069,30,16,19,062,31,23,44,076,30*70
1568394018059;N;$GPGSV,4,3,15,26,13,035,30,29,07,345,33,30,18,196,40,36,28,157,38*70
1568394018059;N;$GPGSV,4,4,15,40,19,132,,41,03,106,,49,30,190,35*40
1568394018059;N;$GLGSV,3,1,11,65,46,087,32,66,60,311,30,67,11,288,,72,04,099,*6C
1568394018060;N;$GLGSV,3,2,11,74,24,029,,75,51,095,32,76,27,156,,81,25,254,*6A
1568394018060;N;$GLGSV,3,3,11,82,30,311,,83,08,356,,88,01,216,*58
1568394018061;N;$GNGLL,5230.27253,N,01311.57426,E,170018.00,A,D*78
1568394019055;N;$GNRMC,170019.00,A,5230.27205,N,01311.57443,E,1.871,166.83,130919,,,D*78
1568394019058;N;$GNVTG,166.83,T,,M,1.871,N,3.466,K,D*24
1568394019062;N;$GNGGA,170019.00,5230.27205,N,01311.57443,E,2,11,0.78,29.5,M,42.4,M,,0000*79
1568394019062;N;$GNGSA,A,3,07,16,29,03,05,23,30,26,,,,,1.41,0.78,1.17*1B
1568394019062;N;$GNGSA,A,3,66,75,65,,,,,,,,,,1.41,0.78,1.17*11
1568394019063;N;$GPGSV,4,1,15,02,37,291,,03,12,126,35,05,11,302,34,06,42,227,*73
1568394019063;N;$GPGSV,4,2,15,07,48,175,37,09,80,069,24,16,19,062,32,23,44,076,34*72
1568394019063;N;$GPGSV,4,3,15,26,13,035,33,29,07,345,33,30,18,196,39,36,28,157,37*72
1568394019063;N;$GPGSV,4,4,15,40,19,132,,41,03,106,,49,30,190,35*40
1568394019063;N;$GLGSV,3,1,11,65,46,087,27,66,60,311,31,67,11,288,,72,04,099,*69
1568394019063;N;$GLGSV,3,2,11,74,24,029,,75,51,095,32,76,27,156,,81,25,254,*6A
1568394019064;N;$GLGSV,3,3,11,82,30,311,,83,08,356,,88,01,216,*58
1568394019065;N;$GNGLL,5230.27205,N,01311.57443,E,170019.00,A,D*79
1568394020057;N;$GNRMC,170020.00,A,5230.27157,N,01311.57459,E,1.845,167.80,130919,,,D*78
1568394020059;N;$GNVTG,167.80,T,,M,1.845,N,3.417,K,D*27
1568394020063;N;$GNGGA,170020.00,5230.27157,N,01311.57459,E,2,11,0.78,29.5,M,42.4,M,,0000*7C
1568394020064;N;$GNGSA,A,3,07,16,29,03,05,23,30,26,,,,,1.41,0.78,1.17*1B
1568394020064;N;$GNGSA,A,3,66,75,65,,,,,,,,,,1.41,0.78,1.17*11
1568394020064;N;$GPGSV,4,1,15,02,37,291,,03,12,126,35,05,11,302,33,06,42,227,30*77
1568394020064;N;$GPGSV,4,2,15,07,48,175,39,09,80,069,29,16,19,062,31,23,44,076,34*72
1568394020065;N;$GPGSV,4,3,15,26,13,035,33,29,07,345,33,30,18,196,40,36,28,157,37*7C
1568394020065;N;$GPGSV,4,4,15,40,19,132,,41,03,106,,49,30,190,36*43
1568394020065;N;$GLGSV,3,1,11,65,46,087,30,66,60,311,31,67,11,288,,72,04,099,*6F
1568394020065;N;$GLGSV,3,2,11,74,24,029,,75,51,095,33,76,27,156,,81,25,254,*6B
1568394020065;N;$GLGSV,3,3,11,82,30,311,,83,08,356,,88,01,216,*58
1568394020067;N;$GNGLL,5230.27157,N,01311.57459,E,170020.00,A,D*7C
1568394021054;N;$GNRMC,170021.00,A,5230.27105,N,01311.57470,E,1.810,168.43,130919,,,D*75
1568394021056;N;$GNVTG,168.43,T,,M,1.810,N,3.353,K,D*20
1568394021061;N;$GNGGA,170021.00,5230.27105,N,01311.57470,E,2,12,0.73,29.5,M,42.4,M,,0000*79
1568394021061;N;$GNGSA,A,3,07,16,29,03,05,06,23,30,26,,,,1.37,0.73,1.16*16
1568394021062;N;$GNGSA,A,3,66,75,65,,,,,,,,,,1.37,0.73,1.16*1A
1568394021062;N;$GPGSV,4,1,15,02,37,291,26,03,12,126,35,05,11,302,33,06,42,227,31*72
1568394021062;N;$GPGSV,4,2,15,07,48,175,38,09,80,069,22,16,19,062,32,23,44,076,37*78
1568394021062;N;$GPGSV,4,3,15,26,13,035,31,29,07,345,33,30,18,196,40,36,28,157,38*71
1568394021062;N;$GPGSV,4,4,15,40,19,132,,41,03,106,,49,30,190,35*40
1568394021063;N;$GLGSV,3,1,11,65,46,087,31,66,60,311,31,67,11,288,,72,04,099,*6E
1568394021063;N;$GLGSV,3,2,11,74,24,029,,75,51,095,34,76,27,156,,81,25,254,*6C
1568394021063;N;$GLGSV,3,3,11,82,30,311,,83,08,356,,88,01,216,*58
1568394021065;N;$GNGLL,5230.27105,N,01311.57470,E,170021.00,A,D*71
1568394022063;N;$GNRMC,170022.00,A,5230.27054,N,01311.57487,E,1.903,167.76,130919,,,D*71
1568394022065;N;$GNVTG,167.76,T,,M,1.903,N,3.525,K,D*2D
1568394022070;N;$GNGGA,170022.00,5230.27054,N,01311.57487,E,2,12,0.69,29.5,M,42.4,M,,0000*7C
1568394022070;N;$GNGSA,A,3,07,16,29,03,09,05,02,06,23,30,26,,1.22,0.69,1.00*15
1568394022071;N;$GNGSA,A,3,66,75,65,,,,,,,,,,1.22,0.69,1.00*12
1568394022071;N;$GPGSV,4,1,15,02,37,291,28,03,12,126,35,05,11,302,32,06,42,227,31*7D
1568394022071;N;$GPGSV,4,2,15,07,48,175,38,09,80,069,33,16,19,062,32,23,44,076,33*7C
1568394022071;N;$GPGSV,4,3,15,26,13,035,32,29,07,345,32,30,18,196,39,36,28,157,36*73
1568394022071;N;$GPGSV,4,4,15,40,19,132,,41,03,106,,49,30,190,35*40
1568394022071;N;$GLGSV,3,1,11,65,46,087,32,66,60,311,31,67,11,288,,72,04,099,33*6D
1568394022072;N;$GLGSV,3,2,11,74,24,029,,75,51,095,35,76,27,156,,81,25,254,*6D
1568394022072;N;$GLGSV,3,3,11,82,30,311,,83,08,356,,88,01,216,*58
1568394022073;N;$GNGLL,5230.27054,N,01311.57487,E,170022.00,A,D*7F
1568394023054;N;$GNRMC,170023.00,A,5230.27003,N,01311.57505,E,1.869,168.87,130919,,,D*75
1568394023057;N;$GNVTG,168.87,T,,M,1.869,N,3.462,K,D*23
1568394023062;N;$GNGGA,170023.00,5230.27003,N,01311.57505,E,2,12,0.67,29.5,M,42.4,M,,0000*7A
1568394023062;N;$GNGSA,A,3,07,16,29,03,09,05,02,06,23,30,26,,1.17,0.67,0.96*13
1568394023063;N;$GNGSA,A,3,66,75,65,,,,,,,,,,1.17,0.67,0.96*14
1568394023063;N;$GPGSV,4,1,15,02,37,291,28,03,12,126,36,05,11,302,32,06,42,227,31*7E
1568394023063;N;$GPGSV,4,2,15,07,48,175,37,09,80,069,26,16,19,062,30,23,44,076,32*74
1568394023063;N;$GPGSV,4,3,15,26,13,035,32,29,07,345,33,30,18,196,38,36,28,157,36*73
1568394023063;N;$GPGSV,4,4,15,40,19,132,,41,03,106,,49,30,190,35*40
1568394023064;N;$GLGSV,3,1,11,65,46,087,32,66,60,311,31,67,11,288,,72,04,099,*6D
1568394023064;N;$GLGSV,3,2,11,74,24,029,,75,51,095,34,76,27,156,,81,25,254,*6C
1568394023064;N;$GLGSV,3,3,11,82,30,311,,83,08,356,,88,01,216,*58
1568394023066;N;$GNGLL,5230.27003,N,01311.57505,E,170023.00,A,D*77
1568394024054;N;$GNRMC,170024.00,A,5230.26953,N,01311.57514,E,1.781,170.55,130919,,,D*70
1568394024057;N;$GNVTG,170.55,T,,M,1.781,N,3.299,K,D*2E
1568394024062;N;$GNGGA,170024.00,5230.26953,N,01311.57514,E,2,12,0.73,29.4,M,42.4,M,,0000*74
1568394024062;N;$GNGSA,A,3,07,16,29,03,02,06,23,30,26,,,,1.35,0.73,1.13*16
1568394024062;N;$GNGSA,A,3,66,75,65,,,,,,,,,,1.35,0.73,1.13*1D
1568394024062;N;$GPGSV,4,1,15,02,37,291,27,03,12,126,35,05,11,302,,06,42,227,30*72
1568394024063;N;$GPGSV,4,2,15,07,48,175,39,09,80,069,,16,19,062,30,23,44,076,32*7E
1568394024063;N;$GPGSV,4,3,15,26,13,035,30,29,07,345,31,30,18,196,39,36,28,157,38*7C
1568394024063;N;$GPGSV,4,4,15,40,19,132,,41,03,106,,49,30,190,35*40
1568394024063;N;$GLGSV,3,1,11,65,46,087,33,66,60,311,31,67,11,288,,72,04,099,*6C
1568394024063;N;$GLGSV,3,2,11,74,24,029,,75,51,095,34,76,27,156,,81,25,254,*6C
1568394024063;N;$GLGSV,3,3,11,82,30,311,,83,08,356,,88,01,216,*58
1568394024065;N;$GNGLL,5230.26953,N,01311.57514,E,170024.00,A,D*7D
1568394025054;N;$GNRMC,170025.00,A,5230.26905,N,01311.57531,E,1.763,167.93,130919,,,D*75
1568394025057;N;$GNVTG,167.93,T,,M,1.763,N,3.264,K,D*2C
1568394025062;N;$GNGGA,170025.00,5230.26905,N,01311.57531,E,2,12,0.68,29.4,M,42.4,M,,0000*7B
1568394025062;N;$GNGSA,A,3,07,16,29,03,05,02,06,23,30,26,,,1.28,0.68,1.09*1E
1568394025062;N;$GNGSA,A,3,66,75,65,,,,,,,,,,1.28,0.68,1.09*10
1568394025066;N;$GPGSV,4,1,15,02,37,291,26,03,12,126,35,05,11,302,32,06,42,227,29*7A
1568394025066;N;$GPGSV,4,2,15,07,48,175,39,09,80,069,27,16,19,062,29,23,44,076,30*71
1568394025067;N;$GPGSV,4,3,15,26,13,035,31,29,07,345,32,30,18,196,37,36,28,157,37*7F
1568394025067;N;$GPGSV,4,4,15,40,19,132,,41,03,106,,49,30,190,35*40
1568394025067;N;$GLGSV,3,1,11,65,46,087,30,66,60,311,31,67,11,288,,72,04,099,*6F
1568394025067;N;$GLGSV,3,2,11,74,24,029,,75,51,095,33,76,27,156,,81,25,254,*6B
1568394025067;N;$GLGSV,3,3,11,82,30,311,,83,08,356,,88,01,216,*58
1568394025069;N;$GNGLL,5230.26905,N,01311.57531,E,170025.00,A,D*78
1568394026058;N;$GNRMC,170026.00,A,5230.26855,N,01311.57542,E,1.825,171.76,130919,,,D*77
1568394026060;N;$GNVTG,171.76,T,,M,1.825,N,3.380,K,D*26
1568394026064;N;$GNGGA,170026.00,5230.26855,N,01311.57542,E,2,12,0.70,29.2,M,42.4,M,,0000*77
1568394026065;N;$GNGSA,A,3,07,16,29,03,09,05,02,06,23,30,26,,1.33,0.70,1.14*18
1568394026065;N;$GNGSA,A,3,66,75,65,,,,,,,,,,1.33,0.70,1.14*1F
1568394026065;N;$GPGSV,4,1,15,02,37,291,31,03,12,126,35,05,11,302,31,06,42,227,30*77
1568394026066;N;$GPGSV,4,2,15,07,48,175,38,09,80,069,26,16,19,062,30,23,44,076,32*7B
1568394026066;N;$GPGSV,4,3,15,26,13,035,30,29,07,345,32,30,18,196,38,36,28,157,35*73
1568394026066;N;$GPGSV,4,4,15,40,19,132,,41,03,106,,49,30,190,34*41
1568394026066;N;$GLGSV,3,1,11,65,46,087,33,66,60,311,31,67,11,288,,72,04,099,*6C
1568394026066;N;$GLGSV,3,2,11,74,24,029,,75,51,095,34,76,27,156,,81,25,254,*6C
1568394026066;N;$GLGSV,3,3,11,82,30,311,,83,08,356,,88,01,216,*58
1568394026068;N;$GNGLL,5230.26855,N,01311.57542,E,170026.00,A,D*7B
1568394027054;N;$GNRMC,170027.00,A,5230.26804,N,01311.57558,E,1.843,171.41,130919,,,D*7D
1568394027056;N;$GNVTG,171.41,T,,M,1.843,N,3.413,K,D*2F
1568394027061;N;$GNGGA,170027.00,5230.26804,N,01311.57558,E,2,12,0.70,29.0,M,42.4,M,,0000*7B
1568394027061;N;$GNGSA,A,3,07,16,29,03,09,05,02,06,23,30,26,,1.33,0.70,1.14*18
1568394027062;N;$GNGSA,A,3,66,75,65,,,,,,,,,,1.33,0.70,1.14*1F
1568394027062;N;$GPGSV,4,1,15,02,37,291,30,03,12,126,37,05,11,302,32,06,42,227,29*7F
1568394027062;N;$GPGSV,4,2,15,07,48,175,40,09,80,069,31,16,19,062,30,23,44,076,31*71
1568394027062;N;$GPGSV,4,3,15,26,13,035,30,29,07,345,31,30,18,196,38,36,28,157,37*72
1568394027062;N;$GPGSV,4,4,15,40,19,132,,41,03,106,,49,30,190,35*40
1568394027062;N;$GLGSV,3,1,11,65,46,087,28,66,60,311,31,67,11,288,,72,04,099,*66
1568394027063;N;$GLGSV,3,2,11,74,24,029,,75,51,095,29,76,27,156,,81,25,254,*60
1568394027063;N;$GLGSV,3,3,11,82,30,311,,83,08,356,,88,01,216,*58
1568394027064;N;$GNGLL,5230.26804,N,01311.57558,E,170027.00,A,D*75
1568394028055;N;$GNRMC,170028.00,A,5230.26754,N,01311.57574,E,1.797,170.09,130919,,,D*7D
1568394028058;N;$GNVTG,170.09,T,,M,1.797,N,3.327,K,D*24
1568394028063;N;$GNGGA,170028.00,5230.26754,N,01311.57574,E,2,12,0.70,29.0,M,42.4,M,,0000*70
1568394028064;N;$GNGSA,A,3,07,16,29,03,05,02,06,23,30,26,,,1.33,0.70,1.14*11
1568394028064;N;$GNGSA,A,3,66,75,65,,,,,,,,,,1.33,0.70,1.14*1F
1568394028064;N;$GPGSV,4,1,15,02,37,291,29,03,12,126,36,05,11,302,32,06,42,227,29*76
1568394028064;N;$GPGSV,4,2,15,07,48,175,37,09,80,069,,16,19,062,29,23,44,076,31*7B
1568394028064;N;$GPGSV,4,3,15,26,13,035,31,29,07,345,31,30,18,196,38,36,28,157,35*71
1568394028064;N;$GPGSV,4,4,15,40,19,132,,41,03,106,,49,30,190,34*41
1568394028065;N;$GLGSV,3,1,11,65,46,087,29,66,60,311,31,67,11,288,,72,04,099,*67
1568394028065;N;$GLGSV,3,2,11,74,24,029,,75,51,095,34,76,27,156,,81,25,254,*6C
1568394028065;N;$GLGSV,3,3,11,82,30,311,,83,08,356,,88,01,216,*58
1568394028067;N;$GNGLL,5230.26754,N,01311.57574,E,170028.00,A,D*7E
1568394029057;N;$GNRMC,170029.00,A,5230.26705,N,01311.57585,E,1.760,172.57,130919,,,D*77
1568394029059;N;$GNVTG,172.57,T,,M,1.760,N,3.260,K,D*27
1568394029064;N;$GNGGA,170029.00,5230.26705,N,01311.57585,E,2,12,0.68,28.8,M,42.4,M,,0000*7B
1568394029064;N;$GNGSA,A,3,07,16,29,03,05,02,06,23,30,26,,,1.28,0.68,1.09*1E
1568394029064;N;$GNGSA,A,3,66,75,65,,,,,,,,,,1.28,0.68,1.09*10
1568394029065;N;$GPGSV,4,1,15,02,37,291,29,03,12,126,35,05,11,302,31,06,42,227,30*7E
1568394029065;N;$GPGSV,4,2,15,07,48,175,37,09,80,069,,16,19,062,30,23,44,076,32*70
1568394029065;N;$GPGSV,4,3,15,26,13,035,31,29,07,345,31,30,18,196,38,36,28,157,35*71
1568394029065;N;$GPGSV,4,4,15,40,19,132,,41,03,106,,49,30,190,34*41
1568394029065;N;$GLGSV,3,1,11,65,46,087,31,66,60,311,31,67,11,288,,72,04,099,*6E
1568394029066;N;$GLGSV,3,2,11,74,24,029,,75,51,095,34,76,27,156,,81,25,254,*6C
1568394029066;N;$GLGSV,3,3,11,82,30,311,,83,08,356,,88,01,216,*58
1568394029067;N;$GNGLL,5230.26705,N,01311.57585,E,170029.00,A,D*75
1568394030054;N;$GNRMC,170030.00,A,5230.26656,N,01311.57608,E,1.866,166.82,130919,,,D*7A
1568394030057;N;$GNVTG,166.82,T,,M,1.866,N,3.456,K,D*20
1568394030061;N;$GNGGA,170030.00,5230.26656,N,01311.57608,E,2,12,0.68,28.9,M,42.4,M,,0000*73
1568394030062;N;$GNGSA,A,3,07,16,29,03,05,02,06,23,30,26,,,1.28,0.68,1.09*1E
1568394030062;N;$GNGSA,A,3,66,75,65,,,,,,,,,,1.28,0.68,1.09*10
1568394030062;N;$GPGSV,4,1,15,02,37,291,28,03,12,126,38,05,11,302,31,06,42,227,29*7A
1568394030062;N;$GPGSV,4,2,15,07,48,175,39,09,80,069,,16,19,062,30,23,44,076,33*7F
1568394030062;N;$GPGSV,4,3,15,26,13,035,32,29,07,345,32,30,18,196,38,36,28,157,35*71
1568394030063;N;$GPGSV,4,4,15,40,19,132,,41,03,106,,49,30,190,33*46
1568394030063;N;$GLGSV,3,1,11,65,46,087,31,66,60,311,31,67,11,288,,72,04,099,*6E
1568394030063;N;$GLGSV,3,2,11,74,24,029,,75,51,095,32,76,27,156,,81,25,254,*6A
1568394030063;N;$GLGSV,3,3,11,82,30,311,,83,08,356,,88,01,216,*58
1568394030065;N;$GNGLL,5230.26656,N,01311.57608,E,170030.00,A,D*7C
1568394031062;N;$GNRMC,170031.00,A,5230.26608,N,01311.57632,E,1.794,165.11,130919,,,D*72
1568394031064;N;$GNVTG,165.11,T,,M,1.794,N,3.323,K,D*2E
1568394031069;N;$GNGGA,170031.00,5230.26608,N,01311.57632,E,2,12,0.68,29.0,M,42.4,M,,0000*78
1568394031069;N;$GNGSA,A,3,07,16,29,03,05,02,06,23,30,26,,,1.28,0.68,1.09*1E
1568394031069;N;$GNGSA,A,3,66,75,65,,,,,,,,,,1.28,0.68,1.09*10
1568394031070;N;$GPGSV,4,1,15,02,37,291,29,03,12,126,37,05,11,302,32,06,42,227,30*7F
1568394031070;N;$GPGSV,4,2,15,07,48,175,39,09,80,069,25,16,19,062,30,23,44,076,32*79
1568394031070;N;$GPGSV,4,3,15,26,13,035,33,29,07,345,31,30,18,196,38,36,28,157,35*73
1568394031070;N;$GPGSV,4,4,15,40,19,132,,41,03,106,,49,30,190,33*46
1568394031070;N;$GLGSV,3,1,11,65,46,087,26,66,60,311,31,67,11,288,,72,04,099,*68
1568394031071;N;$GLGSV,3,2,11,74,24,029,,75,51,095,31,76,27,156,,81,25,254,*69
1568394031071;N;$GLGSV,3,3,11,82,30,311,,83,08,356,,88,01,216,*58
1568394031072;N;$GNGLL,5230.26608,N,01311.57632,E,170031.00,A,D*7F
1568394032055;N;$GNRMC,170032.00,A,5230.26559,N,01311.57653,E,1.790,166.46,130919,,,D*74
1568394032057;N;$GNVTG,166.46,T,,M,1.790,N,3.315,K,D*2E
1568394032065;N;$GNGGA,170032.00,5230.26559,N,01311.57653,E,2,12,0.71,29.0,M,42.4,M,,0000*73
1568394032065;N;$GNGSA,A,3,07,16,29,03,09,05,02,23,30,26,,,1.19,0.71,0.96*1C
1568394032065;N;$GNGSA,A,3,66,75,65,,,,,,,,,,1.19,0.71,0.96*1D
1568394032066;N;$GPGSV,4,1,15,02,37,291,35,03,12,126,37,05,11,302,33,06,42,227,*70
1568394032066;N;$GPGSV,4,2,15,07,48,175,39,09,80,069,29,16,19,062,28,23,44,076,32*7C
1568394032066;N;$GPGSV,4,3,15,26,13,035,32,29,07,345,31,30,18,196,39,36,28,157,33*75
1568394032066;N;$GPGSV,4,4,15,40,19,132,,41,03,106,,49,30,190,32*47
1568394032066;N;$GLGSV,3,1,11,65,46,087,28,66,60,311,32,67,11,288,,72,04,099,*65
1568394032066;N;$GLGSV,3,2,11,74,24,029,,75,51,095,31,76,27,156,,81,25,254,*69
1568394032067;N;$GLGSV,3,3,11,82,30,311,,83,08,356,,88,01,216,*58
1568394032068;N;$GNGLL,5230.26559,N,01311.57653,E,170032.00,A,D*7C
1568394033054;N;$GNRMC,170033.00,A,5230.26510,N,01311.57666,E,1.796,167.32,130919,,,D*7A
1568394033057;N;$GNVTG,167.32,T,,M,1.796,N,3.326,K,D*2A
1568394033061;N;$GNGGA,170033.00,5230.26510,N,01311.57666,E,2,12,0.71,29.1,M,42.4,M,,0000*78
1568394033062;N;$GNGSA,A,3,07,16,29,03,05,02,23,30,26,,,,1.30,0.71,1.09*19
1568394033062;N;$GNGSA,A,3,66,75,65,,,,,,,,,,1.30,0.71,1.09*11
1568394033062;N;$GPGSV,4,1,15,02,37,291,34,03,12,126,35,05,11,302,33,06,42,227,*73
1568394033062;N;$GPGSV,4,2,15,07,48,175,39,09,80,069,28,16,19,062,27,23,44,076,35*75
1568394033062;N;$GPGSV,4,3,15,26,13,035,32,29,07,345,32,30,18,196,38,36,28,157,34*70
1568394033062;N;$GPGSV,4,4,15,40,19,132,,41,03,106,,49,30,190,32*47
1568394033063;N;$GLGSV,3,1,11,65,46,087,33,66,60,311,31,67,11,288,,72,04,099,*6C
1568394033063;N;$GLGSV,3,2,11,74,24,029,,75,51,095,30,76,27,156,,81,25,254,*68
1568394033063;N;$GLGSV,3,3,11,82,30,311,,83,08,356,,88,01,216,*58
1568394033065;N;$GNGLL,5230.26510,N,01311.57666,E,170033.00,A,D*76
1568394034057;N;$GNRMC,170034.00,A,5230.26459,N,01311.57679,E,1.798,169.77,130919,,,D*7E
1568394034059;N;$GNVTG,169.77,T,,M,1.798,N,3.329,K,D*24
1568394034064;N;$GNGGA,170034.00,5230.26459,N,01311.57679,E,2,12,0.73,29.1,M,42.4,M,,0000*7F
1568394034064;N;$GNGSA,A,3,07,16,29,03,09,05,02,23,30,26,,,1.24,0.73,1.01*1F
1568394034064;N;$GNGSA,A,3,66,75,65,,,,,,,,,,1.24,0.73,1.01*1E
1568394034064;N;$GPGSV,4,1,15,02,37,291,33,03,12,126,35,05,11,302,32,06,42,227,*75
1568394034064;N;$GPGSV,4,2,15,07,48,175,37,09,80,069,28,16,19,062,28,23,44,076,35*74
1568394034065;N;$GPGSV,4,3,15,26,13,035,33,29,07,345,32,30,18,196,39,36,28,157,33*77
1568394034065;N;$GPGSV,4,4,15,40,19,132,,41,03,106,,49,30,190,31*44
1568394034065;N;$GLGSV,3,1,11,65,46,087,29,66,60,311,31,67,11,288,,72,04,099,*67
1568394034065;N;$GLGSV,3,2,11,74,24,029,,75,51,095,32,76,27,156,,81,25,254,*6A
1568394034065;N;$GLGSV,3,3,11,82,30,311,,83,08,356,,88,01,216,*58
1568394034067;N;$GNGLL,5230.26459,N,01311.57679,E,170034.00,A,D*73
1568394035053;N;$GNRMC,170035.00,A,5230.26409,N,01311.57689,E,1.709,171.56,130919,,,D*77
1568394035055;N;$GNVTG,171.56,T,,M,1.709,N,3.165,K,D*2C
1568394035060;N;$GNGGA,170035.00,5230.26409,N,01311.57689,E,2,12,0.73,29.1,M,42.4,M,,0000*74
1568394035060;N;$GNGSA,A,3,07,16,29,03,05,02,23,30,26,,,,1.36,0.73,1.15*10
1568394035061;N;$GNGSA,A,3,66,75,65,,,,,,,,,,1.36,0.73,1.15*18
1568394035061;N;$GPGSV,4,1,15,02,37,291,34,03,12,126,36,05,11,302,30,06,42,227,*73
1568394035061;N;$GPGSV,4,2,15,07,48,175,40,09,80,069,28,16,19,062,27,23,44,076,35*7B
1568394035061;N;$GPGSV,4,3,15,26,13,035,31,29,07,345,32,30,18,196,36,36,28,157,34*7D
1568394035061;N;$GPGSV,4,4,15,40,19,132,,41,03,106,,49,30,190,32*47
1568394035061;N;$GLGSV,3,1,11,65,46,087,34,66,60,311,30,67,11,288,,72,04,099,*6A
1568394035062;N;$GLGSV,3,2,11,74,24,029,,75,51,095,33,76,27,156,,81,25,254,*6B
1568394035062;N;$GLGSV,3,3,11,82,30,311,,83,08,356,,88,01,216,*58
1568394035063;N;$GNGLL,5230.26409,N,01311.57689,E,170035.00,A,D*78
1568394036051;N;$GNRMC,170036.00,A,5230.26358,N,01311.57697,E,1.784,173.41,130919,,,D*79
1568394036053;N;$GNVTG,173.41,T,,M,1.784,N,3.303,K,D*2F
1568394036058;N;$GNGGA,170036.00,5230.26358,N,01311.57697,E,2,12,0.74,29.2,M,42.4,M,,0000*7F
1568394036058;N;$GNGSA,A,3,07,16,29,03,09,02,06,23,30,26,,,1.29,0.74,1.06*11
1568394036058;N;$GNGSA,A,3,66,75,65,,,,,,,,,,1.29,0.74,1.06*13
1568394036058;N;$GPGSV,4,1,15,02,37,291,33,03,12,126,36,05,11,302,32,06,42,227,29*7D
1568394036059;N;$GPGSV,4,2,15,07,48,175,40,09,80,069,28,16,19,062,27,23,44,076,34*7A
1568394036059;N;$GPGSV,4,3,15,26,13,035,34,29,07,344,32,30,18,196,39,36,28,157,34*76
1568394036059;N;$GPGSV,4,4,15,40,19,132,,41,03,106,,49,30,190,32*47
1568394036059;N;$GLGSV,3,1,11,65,46,087,29,66,60,311,31,67,11,288,,72,04,099,*67
1568394036059;N;$GLGSV,3,2,11,74,24,029,,75,51,095,27,76,27,156,,81,25,254,*6E
1568394036059;N;$GLGSV,3,3,11,82,30,311,,83,08,356,,88,01,216,*58
1568394036061;N;$GNGLL,5230.26358,N,01311.57697,E,170036.00,A,D*77
1568394037054;N;$GNRMC,170037.00,A,5230.26311,N,01311.57707,E,1.641,172.68,130919,,,D*7F
1568394037057;N;$GNVTG,172.68,T,,M,1.641,N,3.040,K,D*29
1568394037062;N;$GNGGA,170037.00,5230.26311,N,01311.57707,E,2,12,0.70,29.2,M,42.4,M,,0000*7F
1568394037062;N;$GNGSA,A,3,07,16,29,03,09,05,02,06,23,30,26,,1.33,0.70,1.14*18
1568394037062;N;$GNGSA,A,3,66,75,65,,,,,,,,,,1.33,0.70,1.14*1F
1568394037062;N;$GPGSV,4,1,15,02,37,291,33,03,12,126,37,05,11,302,33,06,42,227,27*73
1568394037063;N;$GPGSV,4,2,15,07,48,175,38,09,80,069,29,16,19,062,27,23,44,076,35*75
1568394037063;N;$GPGSV,4,3,15,26,13,035,34,29,07,344,33,30,19,196,39,36,28,157,31*73
1568394037063;N;$GPGSV,4,4,15,40,19,132,,41,03,106,,49,30,190,31*44
1568394037063;N;$GLGSV,3,1,11,65,46,087,33,66,60,311,32,67,11,288,,72,04,099,*6F
1568394037063;N;$GLGSV,3,2,11,74,24,029,,75,51,095,33,76,27,156,,81,25,254,*6B
1568394037063;N;$GLGSV,3,3,11,82,30,311,,83,08,356,,88,01,216,*58
1568394037065;N;$GNGLL,5230.26311,N,01311.57707,E,170037.00,A,D*73
1568394038053;N;$GNRMC,170038.00,A,5230.26263,N,01311.57716,E,1.779,172.89,130919,,,D*71
1568394038056;N;$GNVTG,172.89,T,,M,1.779,N,3.294,K,D*27
1568394038061;N;$GNGGA,170038.00,5230.26263,N,01311.57716,E,2,12,0.71,29.2,M,42.4,M,,0000*75
1568394038061;N;$GNGSA,A,3,07,16,29,03,05,02,06,23,30,26,,,1.38,0.71,1.18*17
1568394038061;N;$GNGSA,A,3,66,75,,,,,,,,,,,1.38,0.71,1.18*1A
1568394038061;N;$GPGSV,4,1,15,02,37,291,36,03,12,126,36,05,11,302,32,06,42,227,28*79
1568394038062;N;$GPGSV,4,2,15,07,48,175,41,09,80,069,,16,19,062,27,23,44,076,34*71
1568394038062;N;$GPGSV,4,3,15,26,13,035,34,29,07,344,33,30,19,196,35,36,28,157,35*7B
1568394038062;N;$GPGSV,4,4,15,40,19,132,,41,03,106,,49,30,190,31*44
1568394038062;N;$GLGSV,3,1,11,65,46,087,,66,60,311,31,67,11,288,,72,04,099,*6C
1568394038062;N;$GLGSV,3,2,11,74,24,029,,75,51,095,32,76,27,156,,81,25,254,*6A
1568394038063;N;$GLGSV,3,3,11,82,30,311,,83,08,356,,88,01,216,*58
1568394038064;N;$GNGLL,5230.26263,N,01311.57716,E,170038.00,A,D*78
1568394039059;N;$GNRMC,170039.00,A,5230.26214,N,01311.57732,E,1.790,170.85,130919,,,D*7F
1568394039062;N;$GNVTG,170.85,T,,M,1.790,N,3.315,K,D*26
1568394039066;N;$GNGGA,170039.00,5230.26214,N,01311.57732,E,2,10,0.75,29.2,M,42.4,M,,0000*74
1568394039066;N;$GNGSA,A,3,07,16,03,05,02,23,30,26,,,,,1.40,0.75,1.18*11
1568394039066;N;$GNGSA,A,3,66,75,,,,,,,,,,,1.40,0.75,1.18*11
1568394039066;N;$GPGSV,4,1,15,02,37,291,33,03,12,126,38,05,11,302,32,06,42,227,27*7D
1568394039067;N;$GPGSV,4,2,15,07,48,175,38,09,80,069,,16,19,062,32,23,44,076,35*7A
1568394039067;N;$GPGSV,4,3,15,26,13,035,34,29,07,344,31,30,19,196,39,36,28,157,31*71
1568394039067;N;$GPGSV,4,4,15,40,19,132,,41,03,106,,49,30,190,33*46
1568394039067;N;$GLGSV,3,1,11,65,46,087,,66,60,311,32,67,11,288,,72,04,099,*6F
1568394039067;N;$GLGSV,3,2,11,74,24,029,,75,51,095,31,76,27,156,,81,25,254,*69
1568394039068;N;$GLGSV,3,3,11,82,30,311,,83,08,356,,88,01,216,*58
1568394039069;N;$GNGLL,5230.26214,N,01311.57732,E,170039.00,A,D*7F
1568394040051;N;$GNRMC,170040.00,A,5230.26165,N,01311.57738,E,1.702,173.05,130919,,,D*7E
1568394040053;N;$GNVTG,173.05,T,,M,1.702,N,3.152,K,D*27
1568394040058;N;$GNGGA,170040.00,5230.26165,N,01311.57738,E,2,10,0.75,29.3,M,42.4,M,,0000*74
1568394040059;N;$GNGSA,A,3,07,29,03,05,02,23,30,26,,,,,1.36,0.75,1.14*10
1568394040059;N;$GNGSA,A,3,66,75,,,,,,,,,,,1.36,0.75,1.14*1C
1568394040059;N;$GPGSV,4,1,15,02,37,291,34,03,12,126,34,05,11,302,31,06,42,227,26*74
1568394040059;N;$GPGSV,4,2,15,07,48,175,40,09,80,069,,16,19,062,,23,44,076,33*72
1568394040059;N;$GPGSV,4,3,15,26,13,035,30,29,07,344,32,30,19,196,37,36,28,157,34*7D
1568394040059;N;$GPGSV,4,4,15,40,19,132,,41,03,106,,49,30,190,32*47
1568394040060;N;$GLGSV,3,1,11,65,46,087,,66,60,311,31,67,11,288,,72,04,099,*6C
1568394040060;N;$GLGSV,3,2,11,74,24,029,,75,51,095,32,76,27,156,,81,25,254,*6A
1568394040060;N;$GLGSV,3,3,11,82,30,311,,83,08,356,,88,01,216,*58
1568394040062;N;$GNGLL,5230.26165,N,01311.57738,E,170040.00,A,D*7E
1568394041052;N;$GNRMC,170041.00,A,5230.26119,N,01311.57742,E,1.748,173.90,130919,,,D*7B
1568394041055;N;$GNVTG,173.90,T,,M,1.748,N,3.236,K,D*24
1568394041059;N;$GNGGA,170041.00,5230.26119,N,01311.57742,E,2,11,0.75,29.3,M,42.4,M,,0000*72
1568394041060;N;$GNGSA,A,3,07,29,03,09,05,02,23,30,26,,,,1.24,0.75,0.99*1E
1568394041060;N;$GNGSA,A,3,66,75,,,,,,,,,,,1.24,0.75,0.99*1B
1568394041060;N;$GPGSV,4,1,15,02,37,291,32,03,12,126,37,05,11,302,31,06,42,227,*75
1568394041060;N;$GPGSV,4,2,15,07,48,175,39,09,80,069,30,16,19,062,26,23,44,076,32*7A
1568394041061;N;$GPGSV,4,3,15,26,13,035,34,29,07,344,33,30,19,196,38,36,28,157,34*77
1568394041061;N;$GPGSV,4,4,15,40,19,132,,41,03,106,,49,30,190,32*47
1568394041061;N;$GLGSV,3,1,11,65,46,087,,66,60,311,31,67,11,288,,72,04,099,*6C
1568394041061;N;$GLGSV,3,2,11,74,24,029,,75,51,095,27,76,27,156,,81,25,254,*6E
1568394041061;N;$GLGSV,3,3,11,82,30,311,,83,08,356,,88,01,216,*58
1568394041063;N;$GNGLL,5230.26119,N,01311.57742,E,170041.00,A,D*79
1568394042054;N;$GNRMC,170042.00,A,5230.26070,N,01311.57746,E,1.817,175.32,130919,,,D*79
1568394042056;N;$GNVTG,175.32,T,,M,1.817,N,3.365,K,D*28
1568394042061;N;$GNGGA,170042.00,5230.26070,N,01311.57746,E,2,11,0.72,29.3,M,42.4,M,,0000*7C
1568394042061;N;$GNGSA,A,3,07,16,29,03,05,02,23,30,26,,,,1.35,0.72,1.14*13
1568394042062;N;$GNGSA,A,3,66,75,,,,,,,,,,,1.35,0.72,1.14*18
1568394042062;N;$GPGSV,4,1,15,02,37,291,32,03,12,126,34,05,11,302,31,06,42,227,26*72
1568394042062;N;$GPGSV,4,2,15,07,48,175,38,09,80,069,30,16,19,062,27,23,44,076,32*7A
1568394042062;N;$GPGSV,4,3,15,26,13,035,28,29,07,344,32,30,19,196,36,36,28,157,33*72
1568394042062;N;$GPGSV,4,4,15,40,19,132,,41,03,106,,49,30,190,32*47
1568394042062;N;$GLGSV,3,1,11,65,46,087,,66,60,311,31,67,11,288,,72,04,099,*6C
1568394042063;N;$GLGSV,3,2,11,74,24,029,,75,51,095,32,76,27,156,,81,25,254,*6A
1568394042063;N;$GLGSV,3,3,11,82,30,311,,83,08,356,,88,01,216,*58
1568394042064;N;$GNGLL,5230.26070,N,01311.57746,E,170042.00,A,D*70
1568394043055;N;$GNRMC,170043.00,A,5230.26022,N,01311.57747,E,1.791,176.83,130919,,,D*76
1568394043058;N;$GNVTG,176.83,T,,M,1.791,N,3.316,K,D*24
1568394043062;N;$GNGGA,170043.00,5230.26022,N,01311.57747,E,2,12,0.69,29.2,M,42.4,M,,0000*73
1568394043063;N;$GNGSA,A,3,07,16,29,03,09,05,02,06,23,30,26,,1.20,0.69,0.98*17
1568394043063;N;$GNGSA,A,3,66,75,,,,,,,,,,,1.20,0.69,0.98*13
1568394043063;N;$GPGSV,4,1,15,02,37,291,31,03,12,126,33,05,11,302,33,06,42,227,26*74
1568394043063;N;$GPGSV,4,2,15,07,48,175,38,09,80,069,26,16,19,062,30,23,44,076,34*7D
1568394043064;N;$GPGSV,4,3,15,26,13,035,33,29,07,344,32,30,19,196,37,36,28,157,32*78
1568394043064;N;$GPGSV,4,4,15,40,19,132,,41,03,106,,49,30,190,31*44
1568394043064;N;$GLGSV,3,1,11,65,46,087,,66,60,311,31,67,11,288,,72,04,099,*6C
1568394043064;N;$GLGSV,3,2,11,74,24,029,,75,51,095,33,76,27,156,,81,25,254,*6B
1568394043064;N;$GLGSV,3,3,11,82,30,311,,83,08,356,,88,01,216,*58
1568394043066;N;$GNGLL,5230.26022,N,01311.57747,E,170043.00,A,D*77
1568394044053;N;$GNRMC,170044.00,A,5230.25972,N,01311.57748,E,1.825,178.43,130919,,,D*73
1568394044055;N;$GNVTG,178.43,T,,M,1.825,N,3.380,K,D*29
1568394044060;N;$GNGGA,170044.00,5230.25972,N,01311.57748,E,2,12,0.72,29.3,M,42.4,M,,0000*7F
1568394044061;N;$GNGSA,A,3,07,16,03,09,05,02,06,23,30,26,,,1.25,0.72,1.02*11
1568394044061;N;$GNGSA,A,3,66,75,,,,,,,,,,,1.25,0.72,1.02*1E
1568394044061;N;$GPGSV,4,1,15,02,37,291,31,03,12,126,35,05,11,302,32,06,42,227,26*73
1568394044061;N;$GPGSV,4,2,15,07,48,175,40,09,80,069,26,16,19,062,29,23,44,076,31*7F
1568394044061;N;$GPGSV,4,3,15,26,13,035,31,29,07,344,,30,19,196,35,36,28,157,33*78
1568394044062;N;$GPGSV,4,4,15,40,19,132,,41,03,106,,49,30,190,31*44
1568394044062;N;$GLGSV,3,1,11,65,46,087,,66,60,311,31,67,11,288,,72,04,099,*6C
1568394044062;N;$GLGSV,3,2,11,74,24,029,,75,51,095,33,76,27,156,,81,25,254,*6B
1568394044062;N;$GLGSV,3,3,11,82,30,311,,83,08,356,,88,01,216,*58
1568394044064;N;$GNGLL,5230.25972,N,01311.57748,E,170044.00,A,D*70
1568394045055;N;$GNRMC,170045.00,A,5230.25922,N,01311.57756,E,1.840,176.60,130919,,,D*74
1568394045058;N;$GNVTG,176.60,T,,M,1.840,N,3.408,K,D*22
1568394045062;N;$GNGGA,170045.00,5230.25922,N,01311.57756,E,2,12,0.72,29.4,M,42.4,M,,0000*73
1568394045064;N;$GNGSA,A,3,07,16,03,09,05,02,06,23,30,26,,,1.25,0.72,1.02*11
1568394045064;N;$GNGSA,A,3,66,75,,,,,,,,,,,1.25,0.72,1.02*1E
1568394045064;N;$GPGSV,4,1,15,02,37,291,31,03,12,126,37,05,11,302,32,06,42,227,27*70
1568394045064;N;$GPGSV,4,2,15,07,48,175,39,09,80,069,30,16,19,062,29,23,44,076,32*75
1568394045064;N;$GPGSV,4,3,15,26,13,035,31,29,07,344,,30,19,196,37,36,28,157,30*79
1568394045065;N;$GPGSV,4,4,15,40,19,132,,41,03,106,,49,30,190,31*44
1568394045065;N;$GLGSV,3,1,11,65,46,087,,66,60,311,32,67,11,288,,72,04,099,*6F
1568394045065;N;$GLGSV,3,2,11,74,24,029,,75,51,095,31,76,27,156,,81,25,254,*69
1568394045065;N;$GLGSV,3,3,11,82,30,311,,83,08,356,,88,01,216,*58
1568394045067;N;$GNGLL,5230.25922,N,01311.57756,E,170045.00,A,D*7B
1568394046052;N;$GNRMC,170046.00,A,5230.25873,N,01311.57761,E,1.673,175.43,130919,,,D*7A
1568394046054;N;$GNVTG,175.43,T,,M,1.673,N,3.099,K,D*22
1568394046059;N;$GNGGA,170046.00,5230.25873,N,01311.57761,E,2,12,0.72,29.3,M,42.4,M,,0000*76
1568394046059;N;$GNGSA,A,3,07,16,03,09,05,02,06,23,30,26,,,1.25,0.72,1.02*11
1568394046060;N;$GNGSA,A,3,66,75,,,,,,,,,,,1.25,0.72,1.02*1E
1568394046060;N;$GPGSV,4,1,15,02,37,291,32,03,12,126,35,05,11,302,32,06,42,227,27*71
1568394046060;N;$GPGSV,4,2,15,07,48,175,41,09,80,069,29,16,19,062,28,23,44,076,31*70
1568394046060;N;$GPGSV,4,3,15,26,13,035,32,29,07,344,,30,19,196,36,36,28,157,32*79
1568394046060;N;$GPGSV,4,4,15,40,19,132,,41,03,106,,49,30,190,32*47
1568394046061;N;$GLGSV,3,1,11,65,46,087,,66,60,311,30,67,11,288,,72,04,099,*6D
1568394046061;N;$GLGSV,3,2,11,74,24,029,,75,51,095,31,76,27,156,,81,25,254,*69
1568394046061;N;$GLGSV,3,3,11,82,30,311,,83,08,356,,88,01,216,*58
1568394046063;N;$GNGLL,5230.25873,N,01311.57761,E,170046.00,A,D*79
1568394047053;N;$GNRMC,170047.00,A,5230.25822,N,01311.57760,E,1.792,176.09,130919,,,D*7D
1568394047056;N;$GNVTG,176.09,T,,M,1.792,N,3.319,K,D*2A
1568394047061;N;$GNGGA,170047.00,5230.25822,N,01311.57760,E,2,11,0.72,29.3,M,42.4,M,,0000*71
1568394047061;N;$GNGSA,A,3,07,16,29,03,05,02,23,30,26,,,,1.35,0.72,1.14*13
1568394047061;N;$GNGSA,A,3,66,75,,,,,,,,,,,1.35,0.72,1.14*18
1568394047061;N;$GPGSV,4,1,15,02,37,291,31,03,12,126,37,05,11,302,32,06,42,227,*75
1568394047061;N;$GPGSV,4,2,15,07,48,175,39,09,80,069,20,16,19,062,29,23,44,076,35*73
1568394047062;N;$GPGSV,4,3,15,26,13,035,28,29,07,344,33,30,19,196,37,36,28,157,31*70
1568394047062;N;$GPGSV,4,4,15,40,19,132,,41,03,106,,49,30,190,32*47
1568394047062;N;$GLGSV,3,1,11,65,46,087,,66,60,311,31,67,11,288,,72,04,099,*6C
1568394047062;N;$GLGSV,3,2,11,74,24,029,,75,51,095,31,76,27,156,,81,25,254,*69
1568394047062;N;$GLGSV,3,3,11,82,30,311,,83,08,356,,88,01,216,*58
1568394047064;N;$GNGLL,5230.25822,N,01311.57760,E,170047.00,A,D*7D
1568394048056;N;$GNRMC,170048.00,A,5230.25772,N,01311.57761,E,1.762,176.70,130919,,,D*78
1568394048059;N;$GNVTG,176.70,T,,M,1.762,N,3.263,K,D*27
1568394048063;N;$GNGGA,170048.00,5230.25772,N,01311.57761,E,2,12,0.69,29.2,M,42.4,M,,0000*7D
1568394048064;N;$GNGSA,A,3,07,16,29,03,09,05,02,06,23,30,26,,1.20,0.69,0.98*17
1568394048064;N;$GNGSA,A,3,66,75,,,,,,,,,,,1.20,0.69,0.98*13
1568394048064;N;$GPGSV,4,1,15,02,37,291,31,03,12,126,36,05,11,302,33,06,42,227,30*76
1568394048064;N;$GPGSV,4,2,15,07,48,175,37,09,80,069,29,16,19,062,28,23,44,076,35*75
1568394048064;N;$GPGSV,4,3,15,26,13,035,28,29,07,344,32,30,19,196,37,36,28,157,31*71
1568394048065;N;$GPGSV,4,4,15,40,19,132,,41,03,106,,49,30,190,33*46
1568394048065;N;$GLGSV,3,1,11,65,46,087,,66,60,311,31,67,11,288,,72,04,099,*6C
1568394048065;N;$GLGSV,3,2,11,74,24,029,,75,51,095,33,76,27,156,,81,25,254,*6B
1568394048065;N;$GLGSV,3,3,11,82,30,311,,83,08,356,,88,01,216,*58
1568394048067;N;$GNGLL,5230.25772,N,01311.57761,E,170048.00,A,D*79
1568394049054;N;$GNRMC,170049.00,A,5230.25724,N,01311.57762,E,1.767,177.09,130919,,,D*73
1568394049057;N;$GNVTG,177.09,T,,M,1.767,N,3.272,K,D*2D
1568394049060;N;$GNGGA,170049.00,5230.25724,N,01311.57762,E,2,11,0.73,29.3,M,42.4,M,,0000*75
1568394049061;N;$GNGSA,A,3,07,16,03,05,02,06,23,30,26,,,,1.38,0.73,1.17*11
1568394049062;N;$GNGSA,A,3,66,75,,,,,,,,,,,1.38,0.73,1.17*17
1568394049062;N;$GPGSV,4,1,15,02,37,291,30,03,12,126,36,05,11,302,32,06,42,227,29*7E
1568394049062;N;$GPGSV,4,2,15,07,48,175,38,09,80,069,,16,19,062,27,23,44,076,31*7A
1568394049062;N;$GPGSV,4,3,15,26,13,035,28,29,07,344,,30,19,196,37,36,28,157,31*70
1568394049063;N;$GPGSV,4,4,15,40,19,132,,41,03,106,,49,30,190,32*47
1568394049063;N;$GLGSV,3,1,11,65,46,087,,66,60,311,31,67,11,288,,72,04,099,*6C
1568394049063;N;$GLGSV,3,2,11,74,24,029,,75,51,095,32,76,27,156,,81,25,254,*6A
1568394049063;N;$GLGSV,3,3,11,82,30,311,,83,08,356,,88,01,216,*58
1568394049065;N;$GNGLL,5230.25724,N,01311.57762,E,170049.00,A,D*78
1568394050054;N;$GNRMC,170050.00,A,5230.25675,N,01311.57767,E,1.793,177.14,130919,,,D*7C
1568394050057;N;$GNVTG,177.14,T,,M,1.793,N,3.320,K,D*2C
1568394050061;N;$GNGGA,170050.00,5230.25675,N,01311.57767,E,2,11,0.73,29.3,M,42.4,M,,0000*7D
1568394050062;N;$GNGSA,A,3,07,16,03,05,02,06,23,30,26,,,,1.38,0.73,1.17*11
1568394050062;N;$GNGSA,A,3,66,75,,,,,,,,,,,1.38,0.73,1.17*17
1568394050062;N;$GPGSV,4,1,15,02,37,291,29,03,12,126,35,05,11,302,33,06,42,227,28*75
1568394050062;N;$GPGSV,4,2,15,07,48,175,39,09,80,069,26,16,19,062,32,23,44,076,31*7B
1568394050062;N;$GPGSV,4,3,15,26,13,035,30,29,07,344,,30,19,196,35,36,28,157,30*7A
1568394050063;N;$GPGSV,4,4,15,40,19,132,,41,03,106,,49,30,190,32*47
1568394050063;N;$GLGSV,3,1,11,65,46,087,,66,60,311,31,67,11,288,,72,04,099,*6C
1568394050063;N;$GLGSV,3,2,11,74,24,029,,75,51,095,33,76,27,156,,81,25,254,*6B
1568394050063;N;$GLGSV,3,3,11,82,30,311,,83,08,356,,88,01,216,*58
1568394050065;N;$GNGLL,5230.25675,N,01311.57767,E,170050.00,A,D*70
1568394051054;N;$GNRMC,170051.00,A,5230.25626,N,01311.57771,E,1.776,176.62,130919,,,D*77
1568394051057;N;$GNVTG,176.62,T,,M,1.776,N,3.289,K,D*25
1568394051061;N;$GNGGA,170051.00,5230.25626,N,01311.57771,E,2,11,0.75,29.3,M,42.4,M,,0000*7B
1568394051062;N;$GNGSA,A,3,07,16,03,09,05,02,23,30,26,,,,1.26,0.75,1.02*13
1568394051062;N;$GNGSA,A,3,66,75,,,,,,,,,,,1.26,0.75,1.02*1A
1568394051062;N;$GPGSV,4,1,15,02,37,291,28,03,12,126,36,05,11,302,32,06,42,227,27*79
1568394051062;N;$GPGSV,4,2,15,07,48,175,39,09,80,069,28,16,19,062,26,23,44,076,31*70
1568394051062;N;$GPGSV,4,3,15,26,13,035,29,29,07,344,,30,19,196,35,36,28,157,31*73
1568394051063;N;$GPGSV,4,4,15,40,19,132,,41,03,106,,49,30,190,31*44
1568394051063;N;$GLGSV,3,1,11,65,46,087,,66,60,311,31,67,11,288,,72,04,099,*6C
1568394051063;N;$GLGSV,3,2,11,74,24,029,,75,51,095,33,76,27,156,,81,25,254,*6B
1568394051063;N;$GLGSV,3,3,11,82,30,311,,83,08,356,,88,01,216,*58
1568394051065;N;$GNGLL,5230.25626,N,01311.57771,E,170051.00,A,D*70
1568394052053;N;$GNRMC,170052.00,A,5230.25577,N,01311.57772,E,1.823,177.11,130919,,,D*7A
1568394052056;N;$GNVTG,177.11,T,,M,1.823,N,3.375,K,D*2D
1568394052060;N;$GNGGA,170052.00,5230.25577,N,01311.57772,E,2,11,0.73,29.3,M,42.4,M,,0000*7A
1568394052061;N;$GNGSA,A,3,07,16,03,05,02,06,23,30,26,,,,1.38,0.73,1.17*11
1568394052061;N;$GNGSA,A,3,66,75,,,,,,,,,,,1.38,0.73,1.17*17
1568394052061;N;$GPGSV,4,1,15,02,37,291,27,03,12,126,36,05,11,302,33,06,42,227,27*77
1568394052061;N;$GPGSV,4,2,15,07,48,175,38,09,80,069,,16,19,062,27,23,44,076,35*7E
1568394052061;N;$GPGSV,4,3,15,26,13,035,30,29,07,344,,30,19,196,36,36,28,157,30*79
1568394052062;N;$GPGSV,4,4,15,40,19,132,,41,03,106,,49,30,190,31*44
1568394052062;N;$GLGSV,3,1,11,65,46,087,,66,60,311,31,67,11,288,,72,04,099,*6C
1568394052062;N;$GLGSV,3,2,11,74,24,029,,75,51,095,32,76,27,156,,81,25,254,*6A
1568394052062;N;$GLGSV,3,3,11,82,30,311,,83,08,356,,88,01,216,*58
1568394052064;N;$GNGLL,5230.25577,N,01311.57772,E,170052.00,A,D*77
1568394053051;N;$GNRMC,170053.00,A,5230.25525,N,01311.57774,E,1.808,177.35,130919,,,D*75
1568394053053;N;$GNVTG,177.35,T,,M,1.808,N,3.349,K,D*2D
1568394053058;N;$GNGGA,170053.00,5230.25525,N,01311.57774,E,2,11,0.73,29.4,M,42.4,M,,0000*7D
1568394053058;N;$GNGSA,A,3,07,16,03,05,02,06,23,30,26,,,,1.38,0.73,1.17*11
1568394053058;N;$GNGSA,A,3,66,75,,,,,,,,,,,1.38,0.73,1.17*17
1568394053058;N;$GPGSV,4,1,15,02,37,291,27,03,12,126,36,05,11,302,32,06,42,227,27*76
1568394053059;N;$GPGSV,4,2,15,07,48,175,40,09,80,069,27,16,19,062,27,23,44,076,33*72
1568394053059;N;$GPGSV,4,3,15,26,13,035,29,29,07,344,,30,19,196,36,36,28,157,31*70
1568394053059;N;$GPGSV,4,4,15,40,19,132,,41,03,106,,49,30,190,32*47
1568394053059;N;$GLGSV,3,1,11,65,46,087,,66,60,311,31,67,11,288,,72,04,099,*6C
1568394053059;N;$GLGSV,3,2,11,74,24,029,,75,51,095,33,76,27,156,,81,25,254,*6B
1568394053060;N;$GLGSV,3,3,11,82,30,311,,83,08,356,,88,01,216,*58
1568394053061;N;$GNGLL,5230.25525,N,01311.57774,E,170053.00,A,D*77
1568394054052;N;$GNRMC,170054.00,A,5230.25473,N,01311.57768,E,1.871,178.83,130919,,,D*71
1568394054054;N;$GNVTG,178.83,T,,M,1.871,N,3.464,K,D*29
1568394054059;N;$GNGGA,170054.00,5230.25473,N,01311.57768,E,2,12,0.72,29.5,M,42.4,M,,0000*76
1568394054060;N;$GNGSA,A,3,07,16,03,09,05,02,06,23,30,26,,,1.25,0.72,1.02*11
1568394054060;N;$GNGSA,A,3,66,75,,,,,,,,,,,1.25,0.72,1.02*1E
1568394054060;N;$GPGSV,4,1,15,02,37,291,28,03,12,126,36,05,11,302,33,06,42,227,25*7A
1568394054060;N;$GPGSV,4,2,15,07,48,175,38,09,80,069,28,16,19,062,27,23,44,076,35*74
1568394054060;N;$GPGSV,4,3,15,26,13,035,30,29,07,344,,30,19,196,37,36,28,157,30*78
1568394054061;N;$GPGSV,4,4,15,40,19,132,,41,03,106,,49,30,190,31*44
1568394054061;N;$GLGSV,3,1,11,65,46,087,,66,60,311,32,67,11,288,,72,04,099,*6F
1568394054061;N;$GLGSV,3,2,11,74,24,029,,75,51,095,32,76,27,156,,81,25,254,*6A
1568394054061;N;$GLGSV,3,3,11,82,30,311,,83,08,356,,88,01,216,*58
1568394054063;N;$GNGLL,5230.25473,N,01311.57768,E,170054.00,A,D*7F
1568394055053;N;$GNRMC,170055.00,A,5230.25416,N,01311.57765,E,1.939,177.43,130919,,,D*70
1568394055056;N;$GNVTG,177.43,T,,M,1.939,N,3.591,K,D*2C
1568394055061;N;$GNGGA,170055.00,5230.25416,N,01311.57765,E,2,12,0.72,29.7,M,42.4,M,,0000*7B
1568394055061;N;$GNGSA,A,3,07,16,03,09,05,02,06,23,30,26,,,1.25,0.72,1.02*11
1568394055061;N;$GNGSA,A,3,66,75,,,,,,,,,,,1.25,0.72,1.02*1E
1568394055061;N;$GPGSV,4,1,15,02,37,291,29,03,12,126,36,05,11,302,32,06,42,227,26*79
1568394055062;N;$GPGSV,4,2,15,07,48,175,40,09,80,069,26,16,19,062,28,23,44,076,36*79
1568394055062;N;$GPGSV,4,3,15,26,13,035,29,29,07,344,,30,19,196,36,36,28,157,31*70
1568394055062;N;$GPGSV,4,4,15,40,19,132,,41,03,106,,49,30,190,32*47
1568394055062;N;$GLGSV,3,1,11,65,46,087,,66,60,311,31,67,11,288,,72,04,099,*6C
1568394055062;N;$GLGSV,3,2,11,74,24,029,,75,51,095,33,76,27,156,,81,25,254,*6B
1568394055063;N;$GLGSV,3,3,11,82,30,311,,83,08,356,,88,01,216,*58
1568394055064;N;$GNGLL,5230.25416,N,01311.57765,E,170055.00,A,D*70
1568394056052;N;$GNRMC,170056.00,A,5230.25361,N,01311.57764,E,1.907,177.15,130919,,,D*7B
1568394056054;N;$GNVTG,177.15,T,,M,1.907,N,3.533,K,D*2A
1568394056062;N;$GNGGA,170056.00,5230.25361,N,01311.57764,E,2,11,0.75,29.8,M,42.4,M,,0000*75
1568394056062;N;$GNGSA,A,3,07,16,03,09,05,02,23,30,26,,,,1.26,0.75,1.02*13
1568394056063;N;$GNGSA,A,3,66,75,,,,,,,,,,,1.26,0.75,1.02*1A
1568394056063;N;$GPGSV,4,1,15,02,37,291,29,03,12,126,36,05,11,302,32,06,42,227,*7D
1568394056063;N;$GPGSV,4,2,15,07,48,175,38,09,80,069,28,16,19,062,29,23,44,076,36*79
1568394056063;N;$GPGSV,4,3,15,26,13,035,30,29,07,344,,30,19,196,38,36,28,157,30*77
1568394056063;N;$GPGSV,4,4,15,40,19,132,,41,03,106,,49,30,190,31*44
1568394056064;N;$GLGSV,3,1,11,65,46,087,,66,60,311,31,67,11,288,,72,04,099,*6C
1568394056064;N;$GLGSV,3,2,11,74,24,029,,75,51,095,32,76,27,156,,81,25,254,*6A
1568394056064;N;$GLGSV,3,3,11,82,30,311,,83,08,356,,88,01,216,*58
1568394056066;N;$GNGLL,5230.25361,N,01311.57764,E,170056.00,A,D*75
1568394057056;N;$GNRMC,170057.00,A,5230.25308,N,01311.57768,E,1.837,176.32,130919,,,D*7F
1568394057059;N;$GNVTG,176.32,T,,M,1.837,N,3.403,K,D*2E
1568394057063;N;$GNGGA,170057.00,5230.25308,N,01311.57768,E,2,11,0.75,29.8,M,42.4,M,,0000*77
1568394057064;N;$GNGSA,A,3,07,16,03,09,05,02,23,30,26,,,,1.26,0.75,1.02*13
1568394057064;N;$GNGSA,A,3,66,75,,,,,,,,,,,1.26,0.75,1.02*1A
1568394057064;N;$GPGSV,4,1,15,02,37,291,30,03,12,126,37,05,11,302,33,06,42,227,23*74
1568394057064;N;$GPGSV,4,2,15,07,48,175,40,09,80,069,27,16,19,062,23,23,44,076,30*75
1568394057064;N;$GPGSV,4,3,15,26,13,035,31,29,07,344,30,30,19,196,39,36,28,157,33*77
1568394057065;N;$GPGSV,4,4,15,40,19,132,,41,03,106,,49,30,190,32*47
1568394057065;N;$GLGSV,3,1,11,65,46,087,,66,60,311,31,67,11,288,,72,04,099,*6C
1568394057065;N;$GLGSV,3,2,11,74,24,029,,75,51,095,33,76,27,156,,81,25,254,*6B
1568394057065;N;$GLGSV,3,3,11,82,30,311,,83,08,356,,88,01,216,*58
1568394057067;N;$GNGLL,5230.25308,N,01311.57768,E,170057.00,A,D*77
1568394058054;N;$GNRMC,170058.00,A,5230.25257,N,01311.57769,E,1.820,176.52,130919,,,D*7A
1568394058056;N;$GNVTG,176.52,T,,M,1.820,N,3.370,K,D*2D
1568394058061;N;$GNGGA,170058.00,5230.25257,N,01311.57769,E,2,11,0.79,29.9,M,42.4,M,,0000*7F
1568394058061;N;$GNGSA,A,3,07,03,09,05,02,06,23,30,26,,,,1.36,0.79,1.11*1D
1568394058061;N;$GNGSA,A,3,66,75,,,,,,,,,,,1.36,0.79,1.11*15
1568394058062;N;$GPGSV,4,1,15,02,37,291,29,03,12,126,36,05,11,302,33,06,42,227,25*7B
1568394058062;N;$GPGSV,4,2,15,07,48,175,39,09,80,069,31,16,19,062,27,23,44,076,36*7E
1568394058062;N;$GPGSV,4,3,15,26,13,035,31,29,07,344,29,30,19,196,38,36,28,157,32*7F
1568394058062;N;$GPGSV,4,4,15,40,19,132,,41,03,106,,49,30,190,32*47
1568394058062;N;$GLGSV,3,1,11,65,46,087,26,66,60,311,31,67,11,288,,72,04,099,*68
1568394058063;N;$GLGSV,3,2,11,74,24,029,,75,51,095,31,76,27,156,,81,25,254,*69
1568394058063;N;$GLGSV,3,3,11,82,30,311,,83,08,356,,88,01,216,*58
1568394058064;N;$GNGLL,5230.25257,N,01311.57769,E,170058.00,A,D*72
1568394059054;N;$GNRMC,170059.00,A,5230.25204,N,01311.57772,E,1.982,177.30,130919,,,D*7B
1568394059056;N;$GNVTG,177.30,T,,M,1.982,N,3.671,K,D*25
1568394059062;N;$GNGGA,170059.00,5230.25204,N,01311.57772,E,2,10,0.78,30.0,M,42.4,M,,0000*73
1568394059062;N;$GNGSA,A,3,07,16,03,05,02,23,30,26,,,,,1.49,0.78,1.26*18
