1568448000055;N;$GNRMC,080000.00,A,5228.97964,N,01311.49110,E,0.165,,140919,,,A*67
1568448000058;N;$GNVTG,,T,,M,0.165,N,0.305,K,A*39
1568448000063;N;$GNGGA,080000.00,5228.97964,N,01311.49110,E,1,11,0.93,23.5,M,42.4,M,,*71
1568448000063;N;$GNGSA,A,3,20,21,15,07,27,26,13,08,,,,,1.57,0.93,1.27*18
1568448000063;N;$GNGSA,A,3,76,86,85,,,,,,,,,,1.57,0.93,1.27*13
1568448000064;N;$GPGSV,4,1,15,07,13,316,39,08,23,293,34,10,42,158,,13,08,029,25*78
1568448000064;N;$GPGSV,4,2,15,15,15,062,32,16,56,209,,20,57,119,31,21,51,070,32*7B
1568448000064;N;$GPGSV,4,3,15,26,32,186,33,27,63,294,35,30,04,344,33,36,28,157,*71
1568448000064;N;$GPGSV,4,4,15,40,19,132,,41,03,106,,49,30,190,*46
1568448000064;N;$GLGSV,3,1,09,68,10,013,,69,38,057,,70,29,130,,75,28,229,*6A
1568448000064;N;$GLGSV,3,2,09,76,41,290,31,77,13,343,,84,23,078,,85,72,018,34*62
1568448000065;N;$GLGSV,3,3,09,86,33,283,25*5C
1568448000066;N;$GNGLL,5228.97964,N,01311.49110,E,080000.00,A,A*78
1568448001054;N;$GNRMC,080001.00,A,5228.97957,N,01311.49113,E,0.159,,140919,,,A*6A
1568448001056;N;$GNVTG,,T,,M,0.159,N,0.295,K,A*3E
1568448001069;N;$GNGGA,080001.00,5228.97957,N,01311.49113,E,1,11,0.93,23.4,M,42.4,M,,*72
1568448001069;N;$GNGSA,A,3,20,21,15,07,27,26,13,08,,,,,1.57,0.93,1.27*18
1568448001069;N;$GNGSA,A,3,76,86,85,,,,,,,,,,1.57,0.93,1.27*13
1568448001069;N;$GPGSV,4,1,15,07,13,316,39,08,23,293,34,10,42,158,34,13,08,029,26*7C
1568448001069;N;$GPGSV,4,2,15,15,15,062,35,16,56,209,,20,57,119,29,21,51,070,34*73
1568448001070;N;$GPGSV,4,3,15,26,32,186,33,27,63,294,31,30,04,344,33,36,28,157,33*75
1568448001070;N;$GPGSV,4,4,15,40,19,132,,41,03,106,,49,30,190,*46
1568448001070;N;$GLGSV,3,1,09,68,10,013,,69,38,057,,70,29,130,,75,28,229,*6A
1568448001070;N;$GLGSV,3,2,09,76,41,290,31,77,13,343,,84,23,078,,85,72,018,34*62
1568448001071;N;$GLGSV,3,3,09,86,33,283,24*5D
1568448001072;N;$GNGLL,5228.97957,N,01311.49113,E,080001.00,A,A*7A
1568448002050;N;$GNRMC,080002.00,A,5228.97947,N,01311.49111,E,0.243,,140919,,,A*62
1568448002053;N;$GNVTG,,T,,M,0.243,N,0.450,K,A*39
1568448002058;N;$GNGGA,080002.00,5228.97947,N,01311.49111,E,1,11,0.93,23.3,M,42.4,M,,*75
1568448002058;N;$GNGSA,A,3,20,21,15,07,27,26,13,08,,,,,1.57,0.93,1.27*18
1568448002058;N;$GNGSA,A,3,76,86,85,,,,,,,,,,1.57,0.93,1.27*13
1568448002058;N;$GPGSV,4,1,15,07,13,316,30,08,23,293,30,10,42,158,24,13,08,029,25*73
1568448002059;N;$GPGSV,4,2,15,15,15,062,27,16,56,209,,20,57,119,19,21,51,070,28*7E
1568448002059;N;$GPGSV,4,3,15,26,32,186,23,27,63,294,27,30,04,344,29,36,28,157,28*72
1568448002059;N;$GPGSV,4,4,15,40,19,132,,41,03,106,,49,30,190,*46
1568448002059;N;$GLGSV,3,1,09,68,10,013,,69,38,057,,70,29,130,,75,28,229,*6A
1568448002059;N;$GLGSV,3,2,09,76,41,290,29,77,13,343,,84,23,078,,85,72,018,31*6E
1568448002059;N;$GLGSV,3,3,09,86,33,283,23*5A
1568448002065;N;$GNGLL,5228.97947,N,01311.49111,E,080002.00,A,A*7A
1568448003053;N;$GNRMC,080003.00,A,5228.97931,N,01311.49107,E,0.351,,140919,,,A*67
1568448003055;N;$GNVTG,,T,,M,0.351,N,0.650,K,A*39
1568448003060;N;$GNGGA,080003.00,5228.97931,N,01311.49107,E,1,10,0.96,23.1,M,42.4,M,,*74
1568448003061;N;$GNGSA,A,3,20,15,07,27,26,13,08,,,,,,1.64,0.96,1.33*1B
1568448003061;N;$GNGSA,A,3,76,86,85,,,,,,,,,,1.64,0.96,1.33*13
1568448003061;N;$GPGSV,4,1,15,07,13,316,29,08,23,293,24,10,42,158,22,13,08,029,22*7F
1568448003061;N;$GPGSV,4,2,15,15,15,062,25,16,56,209,,20,57,119,19,21,51,070,*76
1568448003061;N;$GPGSV,4,3,15,26,32,186,23,27,63,294,27,30,04,344,,36,28,157,*73
1568448003062;N;$GPGSV,4,4,15,40,19,132,,41,03,106,,49,30,190,*46
1568448003062;N;$GLGSV,3,1,09,68,10,013,,69,38,057,,70,29,130,,75,28,229,*6A
1568448003062;N;$GLGSV,3,2,09,76,41,290,28,77,13,343,22,84,23,078,,85,72,018,30*6E
1568448003062;N;$GLGSV,3,3,09,86,33,283,22*5B
1568448003064;N;$GNGLL,5228.97931,N,01311.49107,E,080003.00,A,A*7D
1568448004051;N;$GNRMC,080004.00,A,5228.97925,N,01311.49107,E,0.205,,140919,,,A*65
1568448004053;N;$GNVTG,,T,,M,0.205,N,0.379,K,A*37
1568448004060;N;$GNGGA,080004.00,5228.97925,N,01311.49107,E,1,11,0.90,23.1,M,42.4,M,,*71
1568448004061;N;$GNGSA,A,3,20,15,10,07,27,26,13,08,,,,,1.60,0.90,1.32*19
1568448004061;N;$GNGSA,A,3,76,86,85,,,,,,,,,,1.60,0.90,1.32*10
1568448004061;N;$GPGSV,4,1,15,07,13,316,29,08,23,293,25,10,42,158,22,13,08,029,20*7C
1568448004061;N;$GPGSV,4,2,15,15,15,062,25,16,56,209,,20,57,119,20,21,51,070,*7C
1568448004062;N;$GPGSV,4,3,15,26,32,186,25,27,63,294,27,30,04,344,,36,28,157,*75
1568448004062;N;$GPGSV,4,4,15,40,19,132,,41,03,106,,49,30,190,*46
1568448004062;N;$GLGSV,3,1,09,68,10,013,,69,38,057,,70,29,130,,75,28,229,*6A
1568448004062;N;$GLGSV,3,2,09,76,41,290,27,77,13,343,,84,23,078,,85,72,018,30*61
1568448004062;N;$GLGSV,3,3,09,86,33,283,21*58
1568448004064;N;$GNGLL,5228.97925,N,01311.49107,E,080004.00,A,A*7F
1568448005049;N;$GNRMC,080005.00,A,5228.97921,N,01311.49081,E,0.696,,140919,,,A*61
1568448005052;N;$GNVTG,,T,,M,0.696,N,1.289,K,A*36
1568448005057;N;$GNGGA,080005.00,5228.97921,N,01311.49081,E,1,09,0.99,23.0,M,42.4,M,,*7A
1568448005057;N;$GNGSA,A,3,20,10,07,27,26,13,,,,,,,1.72,0.99,1.40*1A
1568448005057;N;$GNGSA,A,3,76,86,85,,,,,,,,,,1.72,0.99,1.40*1F
1568448005058;N;$GPGSV,4,1,15,07,13,316,27,08,23,293,,10,42,158,21,13,08,029,17*72
1568448005058;N;$GPGSV,4,2,15,15,15,062,,16,56,209,,20,57,119,19,21,51,070,*71
1568448005058;N;$GPGSV,4,3,15,26,32,186,25,27,63,294,27,30,04,344,,36,28,157,*75
1568448005058;N;$GPGSV,4,4,15,40,19,132,,41,03,106,,49,30,190,*46
1568448005058;N;$GLGSV,3,1,09,68,10,013,,69,38,057,,70,29,130,,75,28,229,*6A
1568448005059;N;$GLGSV,3,2,09,76,41,290,26,77,13,343,,84,23,078,,85,72,018,30*60
1568448005059;N;$GLGSV,3,3,09,86,33,283,19*53
1568448005061;N;$GNGLL,5228.97921,N,01311.49081,E,080005.00,A,A*75
1568448006056;N;$GNRMC,080006.00,A,5228.97918,N,01311.49082,E,0.365,,140919,,,A*62
1568448006058;N;$GNVTG,,T,,M,0.365,N,0.676,K,A*3A
1568448006063;N;$GNGGA,080006.00,5228.97918,N,01311.49082,E,1,08,1.24,22.9,M,42.4,M,,*7E
1568448006064;N;$GNGSA,A,3,20,10,07,27,13,,,,,,,,2.04,1.24,1.63*1A
1568448006064;N;$GNGSA,A,3,76,86,85,,,,,,,,,,2.04,1.24,1.63*1B
1568448006064;N;$GPGSV,4,1,15,07,13,316,27,08,23,293,16,10,42,158,21,13,08,029,18*7A
1568448006064;N;$GPGSV,4,2,15,15,15,062,23,16,56,209,,20,57,119,20,21,51,070,14*7F
1568448006064;N;$GPGSV,4,3,15,26,32,186,,27,63,294,27,30,04,344,22,36,28,157,*72
1568448006065;N;$GPGSV,4,4,15,40,19,132,,41,03,106,,49,30,190,*46
1568448006065;N;$GLGSV,3,1,09,68,10,013,,69,38,057,,70,29,130,,75,28,229,*6A
1568448006065;N;$GLGSV,3,2,09,76,41,290,27,77,13,343,,84,23,078,,85,72,018,30*61
1568448006065;N;$GLGSV,3,3,09,86,33,283,21*58
1568448006067;N;$GNGLL,5228.97918,N,01311.49082,E,080006.00,A,A*7F
1568448007053;N;$GNRMC,080007.00,A,5228.97903,N,01311.49081,E,0.556,,140919,,,A*6C
1568448007056;N;$GNVTG,,T,,M,0.556,N,1.029,K,A*31
1568448007068;N;$GNGGA,080007.00,5228.97903,N,01311.49081,E,1,08,1.24,22.6,M,42.4,M,,*79
1568448007068;N;$GNGSA,A,3,20,10,07,27,13,,,,,,,,2.04,1.24,1.63*1A
1568448007068;N;$GNGSA,A,3,76,86,85,,,,,,,,,,2.04,1.24,1.63*1B
1568448007069;N;$GPGSV,4,1,15,07,13,316,26,08,23,293,21,10,42,158,20,13,08,029,17*71
1568448007069;N;$GPGSV,4,2,15,15,15,062,22,16,56,209,,20,57,119,20,21,51,070,09*72
1568448007069;N;$GPGSV,4,3,15,26,32,186,,27,63,294,27,30,04,344,22,36,28,157,*72
1568448007069;N;$GPGSV,4,4,15,40,19,132,,41,03,106,,49,30,190,*46
1568448007069;N;$GLGSV,3,1,09,68,10,013,,69,38,057,,70,29,130,,75,28,229,*6A
1568448007070;N;$GLGSV,3,2,09,76,41,290,26,77,13,343,,84,23,078,,85,72,018,30*60
1568448007070;N;$GLGSV,3,3,09,86,33,283,22*5B
1568448007072;N;$GNGLL,5228.97903,N,01311.49081,E,080007.00,A,A*77
1568448008050;N;$GNRMC,080008.00,A,5228.97891,N,01311.49084,E,0.413,,140919,,,A*6C
1568448008052;N;$GNVTG,,T,,M,0.413,N,0.765,K,A*3F
1568448008056;N;$GNGGA,080008.00,5228.97891,N,01311.49084,E,1,10,1.14,22.3,M,42.4,M,,*76
1568448008057;N;$GNGSA,A,3,20,15,10,07,27,13,08,,,,,,1.89,1.14,1.51*12
1568448008058;N;$GNGSA,A,3,76,86,85,,,,,,,,,,1.89,1.14,1.51*1F
1568448008058;N;$GPGSV,4,1,15,07,13,316,26,08,23,293,22,10,42,158,19,13,08,029,16*79
1568448008058;N;$GPGSV,4,2,15,15,15,062,22,16,56,209,,20,57,119,20,21,51,070,08*73
1568448008058;N;$GPGSV,4,3,15,26,32,186,,27,63,294,26,30,04,344,23,36,28,157,*72
1568448008059;N;$GPGSV,4,4,15,40,19,132,,41,03,106,,49,30,190,*46
1568448008059;N;$GLGSV,3,1,09,68,10,013,,69,38,057,,70,29,130,,75,28,229,*6A
1568448008059;N;$GLGSV,3,2,09,76,41,290,24,77,13,343,,84,23,078,,85,72,018,30*62
1568448008059;N;$GLGSV,3,3,09,86,33,283,21*58
1568448008061;N;$GNGLL,5228.97891,N,01311.49084,E,080008.00,A,A*77
1568448009062;N;$GNRMC,080009.00,A,5228.97868,N,01311.49086,E,0.718,,140919,,,A*61
1568448009064;N;$GNVTG,,T,,M,0.718,N,1.330,K,A*32
1568448009072;N;$GNGGA,080009.00,5228.97868,N,01311.49086,E,1,10,1.14,22.1,M,42.4,M,,*71
1568448009072;N;$GNGSA,A,3,20,15,10,07,27,13,08,,,,,,1.89,1.14,1.51*12
1568448009072;N;$GNGSA,A,3,76,86,85,,,,,,,,,,1.89,1.14,1.51*1F
1568448009073;N;$GPGSV,4,1,15,07,13,316,26,08,23,293,23,10,42,158,19,13,08,029,17*79
1568448009073;N;$GPGSV,4,2,15,15,15,062,22,16,56,209,,20,57,119,20,21,51,070,07*7C
1568448009073;N;$GPGSV,4,3,15,26,32,186,,27,63,294,27,30,04,344,23,36,28,157,*73
1568448009073;N;$GPGSV,4,4,15,40,19,132,,41,03,106,,49,30,190,*46
1568448009073;N;$GLGSV,3,1,09,68,10,013,,69,38,057,,70,29,130,,75,28,229,*6A
1568448009074;N;$GLGSV,3,2,09,76,41,290,24,77,13,343,,84,23,078,,85,71,020,30*6A
1568448009074;N;$GLGSV,3,3,09,86,33,283,21*58
1568448009076;N;$GNGLL,5228.97868,N,01311.49086,E,080009.00,A,A*72
1568448010053;N;$GNRMC,080010.00,A,5228.97836,N,01311.49094,E,0.509,,140919,,,A*63
1568448010056;N;$GNVTG,,T,,M,0.509,N,0.942,K,A*3E
1568448010061;N;$GNGGA,080010.00,5228.97836,N,01311.49094,E,1,10,1.14,21.4,M,42.4,M,,*77
1568448010061;N;$GNGSA,A,3,20,15,10,07,27,13,08,,,,,,1.89,1.14,1.51*12
1568448010061;N;$GNGSA,A,3,76,86,85,,,,,,,,,,1.89,1.14,1.51*1F
1568448010061;N;$GPGSV,4,1,15,07,13,316,26,08,23,293,25,10,42,158,19,13,08,029,17*7F
1568448010062;N;$GPGSV,4,2,15,15,15,062,22,16,56,209,,20,57,119,19,21,51,070,08*79
1568448010062;N;$GPGSV,4,3,15,26,32,186,,27,63,294,28,30,04,344,23,36,28,157,*7C
1568448010062;N;$GPGSV,4,4,15,40,19,132,,41,03,106,,49,30,190,*46
1568448010062;N;$GLGSV,3,1,09,68,09,013,,69,38,057,,70,29,130,,75,28,229,*62
1568448010062;N;$GLGSV,3,2,09,76,41,290,26,77,13,343,18,84,23,078,,85,71,020,36*67
1568448010062;N;$GLGSV,3,3,09,86,33,283,22*5B
1568448010068;N;$GNGLL,5228.97836,N,01311.49094,E,080010.00,A,A*72
1568448011054;N;$GNRMC,080011.00,A,5228.97846,N,01311.49086,E,0.367,,140919,,,A*68
1568448011056;N;$GNVTG,,T,,M,0.367,N,0.679,K,A*37
1568448011061;N;$GNGGA,080011.00,5228.97846,N,01311.49086,E,1,11,1.14,21.0,M,42.4,M,,*77
1568448011061;N;$GNGSA,A,3,20,15,10,07,27,26,13,08,,,,,1.89,1.14,1.51*16
1568448011061;N;$GNGSA,A,3,76,86,85,,,,,,,,,,1.89,1.14,1.51*1F
1568448011062;N;$GPGSV,4,1,15,07,13,316,35,08,23,293,34,10,42,158,28,13,08,029,27*7C
1568448011062;N;$GPGSV,4,2,15,15,15,062,33,16,56,209,20,20,57,119,33,21,51,070,*7B
1568448011062;N;$GPGSV,4,3,15,26,32,186,35,27,63,294,36,30,04,344,35,36,28,157,*72
1568448011062;N;$GPGSV,4,4,15,40,19,132,,41,03,106,,49,30,190,30*45
1568448011062;N;$GLGSV,3,1,09,68,09,013,,69,38,057,,70,29,130,,75,28,229,*62
1568448011062;N;$GLGSV,3,2,09,76,41,290,29,77,13,343,,84,23,078,,85,71,020,34*63
1568448011063;N;$GLGSV,3,3,09,86,33,283,27*5E
1568448011064;N;$GNGLL,5228.97846,N,01311.49086,E,080011.00,A,A*77
1568448012057;N;$GNRMC,080012.00,A,5228.97838,N,01311.49071,E,0.376,,140919,,,A*6A
1568448012059;N;$GNVTG,,T,,M,0.376,N,0.696,K,A*36
1568448012064;N;$GNGGA,080012.00,5228.97838,N,01311.49071,E,1,11,0.87,21.0,M,42.4,M,,*7E
1568448012064;N;$GNGSA,A,3,20,15,10,07,27,26,13,08,,,,,1.58,0.87,1.32*14
1568448012064;N;$GNGSA,A,3,76,86,85,,,,,,,,,,1.58,0.87,1.32*1D
1568448012064;N;$GPGSV,4,1,15,07,13,316,28,08,23,293,25,10,42,158,28,13,08,029,26*71
1568448012065;N;$GPGSV,4,2,15,15,15,062,28,16,56,209,18,20,57,119,28,21,51,070,23*71
1568448012065;N;$GPGSV,4,3,15,26,32,186,28,27,63,294,27,30,04,344,29,36,28,157,*73
1568448012065;N;$GPGSV,4,4,15,40,19,132,,41,03,106,,49,30,190,*46
1568448012065;N;$GLGSV,3,1,09,68,09,013,,69,38,057,,70,30,129,,75,28,229,*62
1568448012065;N;$GLGSV,3,2,09,76,41,290,25,77,13,343,,84,23,078,,85,71,020,33*68
1568448012065;N;$GLGSV,3,3,09,86,33,283,26*5F
1568448012067;N;$GNGLL,5228.97838,N,01311.49071,E,080012.00,A,A*75
1568448013049;N;$GNRMC,080013.00,A,5228.97803,N,01311.49039,E,1.414,,140919,,,A*6D
1568448013052;N;$GNVTG,,T,,M,1.414,N,2.618,K,A*30
1568448013064;N;$GNGGA,080013.00,5228.97803,N,01311.49039,E,1,09,1.00,20.9,M,42.4,M,,*74
1568448013064;N;$GNGSA,A,3,10,07,27,26,13,08,,,,,,,1.74,1.00,1.43*14
1568448013064;N;$GNGSA,A,3,76,86,85,,,,,,,,,,1.74,1.00,1.43*1B
1568448013065;N;$GPGSV,4,1,15,07,13,316,26,08,23,293,23,10,42,158,25,13,08,029,22*70
1568448013065;N;$GPGSV,4,2,15,15,15,062,,16,56,209,15,20,57,119,,21,51,070,21*7E
1568448013065;N;$GPGSV,4,3,15,26,32,186,25,27,63,294,27,30,04,344,22,36,28,157,*75
1568448013065;N;$GPGSV,4,4,15,40,19,132,,41,03,106,,49,30,190,*46
1568448013065;N;$GLGSV,3,1,09,68,09,013,,69,38,057,,70,30,129,,75,28,229,*62
1568448013066;N;$GLGSV,3,2,09,76,41,290,25,77,13,343,,84,23,078,,85,71,020,30*6B
1568448013066;N;$GLGSV,3,3,09,86,33,283,24*5D
1568448013068;N;$GNGLL,5228.97803,N,01311.49039,E,080013.00,A,A*70
1568448014051;N;$GNRMC,080014.00,A,5228.97778,N,01311.49043,E,0.356,,140919,,,A*64
1568448014053;N;$GNVTG,,T,,M,0.356,N,0.660,K,A*3D
1568448014059;N;$GNGGA,080014.00,5228.97778,N,01311.49043,E,1,09,1.00,20.4,M,42.4,M,,*70
1568448014060;N;$GNGSA,A,3,10,07,27,26,13,08,,,,,,,1.74,1.00,1.43*14
1568448014060;N;$GNGSA,A,3,76,86,85,,,,,,,,,,1.74,1.00,1.43*1B
1568448014060;N;$GPGSV,4,1,15,07,13,316,26,08,23,293,23,10,42,158,20,13,08,029,20*77
1568448014060;N;$GPGSV,4,2,15,15,15,062,,16,56,209,11,20,57,119,,21,51,070,20*7B
1568448014061;N;$GPGSV,4,3,15,26,32,186,24,27,63,294,25,30,04,344,22,36,28,157,*76
1568448014061;N;$GPGSV,4,4,15,40,19,132,,41,03,106,,49,30,190,*46
1568448014061;N;$GLGSV,3,1,09,68,09,013,,69,38,057,,70,30,129,,75,28,229,22*62
1568448014061;N;$GLGSV,3,2,09,76,41,290,25,77,13,343,,84,23,078,,85,71,020,31*6A
1568448014061;N;$GLGSV,3,3,09,86,33,283,22*5B
1568448014063;N;$GNGLL,5228.97778,N,01311.49043,E,080014.00,A,A*79
1568448015056;N;$GNRMC,080015.00,A,5228.97735,N,01311.49053,E,0.789,,140919,,,A*6B
1568448015059;N;$GNVTG,,T,,M,0.789,N,1.461,K,A*39
1568448015066;N;$GNGGA,080015.00,5228.97735,N,01311.49053,E,1,10,0.91,19.9,M,42.4,M,,*7F
1568448015066;N;$GNGSA,A,3,21,10,07,27,26,13,08,,,,,,1.65,0.91,1.37*1D
1568448015066;N;$GNGSA,A,3,76,86,85,,,,,,,,,,1.65,0.91,1.37*11
1568448015066;N;$GPGSV,4,1,15,07,13,316,28,08,23,293,25,10,42,158,20,13,08,029,17*7B
1568448015067;N;$GPGSV,4,2,15,15,15,062,25,16,56,209,10,20,57,119,,21,51,070,21*7C
1568448015067;N;$GPGSV,4,3,15,26,32,186,25,27,63,294,25,30,04,344,23,36,28,157,*76
1568448015067;N;$GPGSV,4,4,15,40,19,132,,41,03,106,,49,30,190,*46
1568448015067;N;$GLGSV,3,1,09,68,09,013,,69,38,057,,70,30,129,,75,28,229,*62
1568448015067;N;$GLGSV,3,2,09,76,41,290,25,77,13,343,,84,23,078,,85,71,020,31*6A
1568448015068;N;$GLGSV,3,3,09,86,33,283,21*58
1568448015069;N;$GNGLL,5228.97735,N,01311.49053,E,080015.00,A,A*70
1568448016049;N;$GNRMC,080016.00,A,5228.97662,N,01311.49130,E,0.641,,140919,,,A*6A
1568448016052;N;$GNVTG,,T,,M,0.641,N,1.188,K,A*3E
1568448016061;N;$GNGGA,080016.00,5228.97662,N,01311.49130,E,1,11,1.15,19.6,M,42.4,M,,*78
1568448016061;N;$GNGSA,A,3,21,15,10,07,27,26,13,08,,,,,1.88,1.15,1.48*1F
1568448016061;N;$GNGSA,A,3,76,86,85,,,,,,,,,,1.88,1.15,1.48*17
1568448016062;N;$GPGSV,4,1,15,07,13,316,42,08,23,293,39,10,42,158,32,13,08,029,27*7A
1568448016062;N;$GPGSV,4,2,15,15,15,062,35,16,56,209,,20,57,119,23,21,51,070,34*79
1568448016062;N;$GPGSV,4,3,15,26,32,186,37,27,63,294,37,30,04,344,34,36,28,157,*70
1568448016062;N;$GPGSV,4,4,15,40,19,132,,41,03,106,,49,30,190,*46
1568448016062;N;$GLGSV,3,1,09,68,09,013,,69,38,057,,70,30,129,,75,28,229,*62
1568448016063;N;$GLGSV,3,2,09,76,41,290,26,77,13,343,,84,23,078,,85,71,020,35*6D
1568448016063;N;$GLGSV,3,3,09,86,33,283,22*5B
1568448016065;N;$GNGLL,5228.97662,N,01311.49130,E,080016.00,A,A*74
1568448017051;N;$GNRMC,080017.00,A,5228.97655,N,01311.49147,E,0.323,,140919,,,A*6E
1568448017053;N;$GNVTG,,T,,M,0.323,N,0.598,K,A*3B
1568448017058;N;$GNGGA,080017.00,5228.97655,N,01311.49147,E,1,07,3.76,19.3,M,42.4,M,,*78
1568448017058;N;$GNGSA,A,3,21,07,27,08,,,,,,,,,4.87,3.76,3.09*16
1568448017059;N;$GNGSA,A,3,76,86,85,,,,,,,,,,4.87,3.76,3.09*1D
1568448017059;N;$GPGSV,4,1,15,07,13,316,36,08,23,293,26,10,42,158,,13,08,029,22*73
1568448017059;N;$GPGSV,4,2,15,15,15,062,,16,56,209,20,20,57,119,19,21,51,070,25*74
1568448017059;N;$GPGSV,4,3,15,26,32,186,,27,63,294,26,30,04,344,26,36,28,157,*77
1568448017059;N;$GPGSV,4,4,15,40,19,132,,41,03,106,,49,30,190,*46
1568448017060;N;$GLGSV,3,1,09,68,09,013,,69,38,057,,70,30,129,,75,28,228,*63
1568448017060;N;$GLGSV,3,2,09,76,41,290,26,77,13,343,,84,23,078,,85,71,020,34*6C
1568448017060;N;$GLGSV,3,3,09,86,33,283,23*5A
1568448017062;N;$GNGLL,5228.97655,N,01311.49147,E,080017.00,A,A*71
1568448018056;N;$GNRMC,080018.00,A,5228.97646,N,01311.49172,E,0.448,,140919,,,A*6F
1568448018058;N;$GNVTG,,T,,M,0.448,N,0.830,K,A*3E
1568448018063;N;$GNGGA,080018.00,5228.97646,N,01311.49172,E,1,10,3.24,19.0,M,42.4,M,,*71
1568448018063;N;$GNGSA,A,3,21,15,10,07,27,08,,,,,,,3.83,3.24,2.05*1A
1568448018063;N;$GNGSA,A,3,76,86,85,69,,,,,,,,,3.83,3.24,2.05*1B
1568448018063;N;$GPGSV,4,1,15,07,13,316,31,08,23,293,30,10,42,158,27,13,08,029,22*76
1568448018064;N;$GPGSV,4,2,15,15,15,062,27,16,56,209,18,20,57,119,16,21,51,070,23*73
1568448018064;N;$GPGSV,4,3,15,26,32,186,,27,63,294,28,30,04,344,26,36,28,157,*79
1568448018064;N;$GPGSV,4,4,15,40,19,132,,41,03,106,,49,30,190,*46
1568448018064;N;$GLGSV,3,1,09,68,09,013,,69,38,057,29,70,30,129,,75,28,228,*68
1568448018064;N;$GLGSV,3,2,09,76,41,289,26,77,13,343,,84,23,078,,85,71,020,33*63
1568448018065;N;$GLGSV,3,3,09,86,33,283,23*5A
1568448018066;N;$GNGLL,5228.97646,N,01311.49172,E,080018.00,A,A*7A
1568448019055;N;$GNRMC,080019.00,A,5228.97617,N,01311.49213,E,0.815,,140919,,,A*6A
1568448019057;N;$GNVTG,,T,,M,0.815,N,1.510,K,A*34
1568448019073;N;$GNGGA,080019.00,5228.97617,N,01311.49213,E,1,10,1.14,18.3,M,42.4,M,,*73
1568448019074;N;$GNGSA,A,3,21,15,10,07,27,08,,,,,,,1.88,1.14,1.50*11
1568448019074;N;$GNGSA,A,3,76,86,85,69,,,,,,,,,1.88,1.14,1.50*10
1568448019074;N;$GPGSV,4,1,15,07,13,316,30,08,23,293,29,10,42,158,25,13,08,029,20*7F
1568448019074;N;$GPGSV,4,2,15,15,15,062,26,16,56,209,16,20,57,119,13,21,51,070,21*7B
1568448019075;N;$GPGSV,4,3,15,26,32,186,,27,63,294,27,30,04,344,25,36,28,157,*75
1568448019075;N;$GPGSV,4,4,15,40,19,132,,41,03,106,,49,30,190,*46
1568448019075;N;$GLGSV,3,1,09,68,09,013,,69,38,057,27,70,30,129,,75,28,228,*66
1568448019075;N;$GLGSV,3,2,09,76,41,289,26,77,14,343,,84,23,078,,85,71,020,32*65
1568448019075;N;$GLGSV,3,3,09,86,33,283,22*5B
1568448019077;N;$GNGLL,5228.97617,N,01311.49213,E,080019.00,A,A*7B
1568448020056;N;$GNRMC,080020.00,A,5228.97601,N,01311.49249,E,0.919,189.39,140919,,,A*71
1568448020058;N;$GNVTG,189.39,T,,M,0.919,N,1.703,K,A*2D
1568448020065;N;$GNGGA,080020.00,5228.97601,N,01311.49249,E,1,12,0.78,18.3,M,42.4,M,,*78
1568448020065;N;$GNGSA,A,3,20,21,16,15,10,07,27,26,13,08,,,1.46,0.78,1.24*18
1568448020065;N;$GNGSA,A,3,76,86,85,69,,,,,,,,,1.46,0.78,1.24*1A
1568448020065;N;$GPGSV,4,1,15,07,13,316,38,08,23,293,37,10,42,158,34,13,08,029,29*71
1568448020066;N;$GPGSV,4,2,15,15,15,062,35,16,56,209,19,20,57,119,30,21,51,070,34*73
1568448020066;N;$GPGSV,4,3,15,26,32,186,35,27,63,294,33,30,04,344,31,36,28,157,29*78
1568448020066;N;$GPGSV,4,4,15,40,19,132,29,41,03,106,,49,30,190,*4D
1568448020066;N;$GLGSV,3,1,09,68,09,013,,69,38,057,27,70,30,129,,75,28,228,*66
1568448020066;N;$GLGSV,3,2,09,76,41,289,30,77,14,343,,84,23,078,,85,71,020,35*65
1568448020066;N;$GLGSV,3,3,09,86,33,283,25*5C
1568448020068;N;$GNGLL,5228.97601,N,01311.49249,E,080020.00,A,A*79
1568448021054;N;$GNRMC,080021.00,A,5228.97661,N,01311.49268,E,0.563,183.47,140919,,,A*77
1568448021056;N;$GNVTG,183.47,T,,M,0.563,N,1.043,K,A*2C
1568448021061;N;$GNGGA,080021.00,5228.97661,N,01311.49268,E,1,12,0.80,18.8,M,42.4,M,,*70
1568448021061;N;$GNGSA,A,3,20,21,16,15,10,07,27,26,13,08,,,1.48,0.80,1.24*11
1568448021061;N;$GNGSA,A,3,76,86,85,69,,,,,,,,,1.48,0.80,1.24*13
1568448021061;N;$GPGSV,4,1,15,07,13,316,41,08,23,293,39,10,42,158,31,13,08,029,28*75
1568448021062;N;$GPGSV,4,2,15,15,15,062,33,16,56,209,22,20,57,119,30,21,51,070,34*7D
1568448021062;N;$GPGSV,4,3,15,26,32,186,33,27,63,294,36,30,04,344,35,36,28,157,28*7E
1568448021062;N;$GPGSV,4,4,15,40,19,132,27,41,03,106,,49,30,190,*43
1568448021062;N;$GLGSV,3,1,09,68,09,013,,69,38,057,29,70,30,129,,75,28,228,*68
1568448021062;N;$GLGSV,3,2,09,76,41,289,29,77,14,343,,84,23,078,,85,71,020,36*6E
1568448021063;N;$GLGSV,3,3,09,86,33,283,26*5F
1568448021064;N;$GNGLL,5228.97661,N,01311.49268,E,080021.00,A,A*7D
1568448022061;N;$GNRMC,080022.00,A,5228.97660,N,01311.49257,E,1.269,185.88,140919,,,A*70
1568448022064;N;$GNVTG,185.88,T,,M,1.269,N,2.350,K,A*27
1568448022068;N;$GNGGA,080022.00,5228.97660,N,01311.49257,E,1,12,0.78,19.1,M,42.4,M,,*71
1568448022068;N;$GNGSA,A,3,20,21,16,15,10,07,27,26,13,08,,,1.46,0.78,1.24*18
1568448022069;N;$GNGSA,A,3,76,86,85,69,,,,,,,,,1.46,0.78,1.24*1A
1568448022069;N;$GPGSV,4,1,15,07,13,316,32,08,23,293,29,10,42,158,30,13,08,029,26*7F
1568448022069;N;$GPGSV,4,2,15,15,15,062,28,16,56,209,22,20,57,119,25,21,51,070,25*73
1568448022069;N;$GPGSV,4,3,15,26,32,186,28,27,63,294,29,30,04,344,26,36,28,157,27*77
1568448022069;N;$GPGSV,4,4,15,40,19,132,27,41,03,106,,49,30,190,*43
1568448022070;N;$GLGSV,3,1,09,68,09,013,,69,38,057,23,70,30,129,,75,28,228,*62
1568448022070;N;$GLGSV,3,2,09,76,41,289,27,77,14,343,,84,23,078,,85,71,020,29*6E
1568448022070;N;$GLGSV,3,3,09,86,33,283,25*5C
1568448022072;N;$GNGLL,5228.97660,N,01311.49257,E,080022.00,A,A*73
1568448023055;N;$GNRMC,080023.00,A,5228.97660,N,01311.49255,E,0.497,,140919,,,A*67
1568448023058;N;$GNVTG,,T,,M,0.497,N,0.921,K,A*3D
1568448023065;N;$GNGGA,080023.00,5228.97660,N,01311.49255,E,1,12,0.82,19.2,M,42.4,M,,*74
1568448023066;N;$GNGSA,A,3,20,21,16,10,07,27,26,13,08,,,,1.57,0.82,1.34*18
1568448023066;N;$GNGSA,A,3,76,86,85,69,,,,,,,,,1.57,0.82,1.34*1E
1568448023066;N;$GPGSV,4,1,15,07,13,316,29,08,23,293,28,10,42,158,23,13,08,029,22*72
1568448023066;N;$GPGSV,4,2,15,15,15,062,,16,56,209,19,20,57,119,22,21,51,070,23*70
1568448023066;N;$GPGSV,4,3,15,26,32,186,25,27,63,294,26,30,04,344,25,36,28,157,*73
1568448023067;N;$GPGSV,4,4,15,40,19,132,,41,03,106,,49,30,190,*46
1568448023067;N;$GLGSV,3,1,09,68,09,013,,69,38,057,25,70,30,129,,75,28,228,*64
1568448023067;N;$GLGSV,3,2,09,76,41,289,26,77,14,343,,84,23,078,,85,71,020,32*65
1568448023067;N;$GLGSV,3,3,09,86,33,283,24*5D
1568448023069;N;$GNGLL,5228.97660,N,01311.49255,E,080023.00,A,A*70
1568448024056;N;$GNRMC,080024.00,A,5228.97670,N,01311.49256,E,0.237,,140919,,,A*6E
1568448024058;N;$GNVTG,,T,,M,0.237,N,0.439,K,A*35
1568448024063;N;$GNGGA,080024.00,5228.97670,N,01311.49256,E,1,12,0.82,19.3,M,42.4,M,,*70
1568448024063;N;$GNGSA,A,3,20,21,16,10,07,27,26,13,08,,,,1.57,0.82,1.34*18
1568448024063;N;$GNGSA,A,3,76,86,85,69,,,,,,,,,1.57,0.82,1.34*1E
1568448024064;N;$GPGSV,4,1,15,07,13,316,28,08,23,293,26,10,42,158,24,13,08,029,17*7C
1568448024064;N;$GPGSV,4,2,15,15,15,062,,16,56,209,16,20,57,119,20,21,51,070,21*7F
1568448024064;N;$GPGSV,4,3,15,26,32,186,24,27,63,294,23,30,04,344,23,36,28,157,*71
1568448024064;N;$GPGSV,4,4,15,40,19,132,,41,03,106,,49,30,190,*46
1568448024064;N;$GLGSV,3,1,09,68,09,013,,69,38,057,25,70,30,129,,75,28,228,*64
1568448024065;N;$GLGSV,3,2,09,76,41,289,24,77,14,343,,84,23,078,,85,71,020,30*65
1568448024065;N;$GLGSV,3,3,09,86,33,283,23*5A
1568448024067;N;$GNGLL,5228.97670,N,01311.49256,E,080024.00,A,A*75
1568448025056;N;$GNRMC,080025.00,A,5228.97658,N,01311.49256,E,0.707,,140919,,,A*63
1568448025058;N;$GNVTG,,T,,M,0.707,N,1.310,K,A*3E
1568448025062;N;$GNGGA,080025.00,5228.97658,N,01311.49256,E,1,11,1.40,19.3,M,42.4,M,,*77
1568448025063;N;$GNGSA,A,3,20,21,16,07,27,13,08,,,,,,2.32,1.40,1.85*18
1568448025063;N;$GNGSA,A,3,76,86,85,69,,,,,,,,,2.32,1.40,1.85*1B
1568448025063;N;$GPGSV,4,1,15,07,13,316,30,08,23,293,29,10,42,158,27,13,08,029,25*78
1568448025063;N;$GPGSV,4,2,15,15,15,062,28,16,56,209,19,20,57,119,20,21,51,070,26*7D
1568448025064;N;$GPGSV,4,3,15,26,32,186,,27,63,294,25,30,04,344,25,36,28,157,*77
1568448025064;N;$GPGSV,4,4,15,40,19,132,,41,03,106,,49,30,190,*46
1568448025064;N;$GLGSV,3,1,09,68,09,013,,69,38,057,26,70,30,129,,75,28,228,*67
1568448025064;N;$GLGSV,3,2,09,76,41,289,24,77,14,343,,84,23,078,,85,71,020,31*64
1568448025064;N;$GLGSV,3,3,09,86,33,283,24*5D
1568448025066;N;$GNGLL,5228.97658,N,01311.49256,E,080025.00,A,A*7E
1568448026056;N;$GNRMC,080026.00,A,5228.97667,N,01311.49278,E,0.306,,140919,,,A*65
1568448026058;N;$GNVTG,,T,,M,0.306,N,0.567,K,A*3C
1568448026070;N;$GNGGA,080026.00,5228.97667,N,01311.49278,E,1,12,0.97,19.2,M,42.4,M,,*7D
1568448026071;N;$GNGSA,A,3,20,21,16,15,10,07,27,13,08,,,,1.71,0.97,1.41*1A
1568448026071;N;$GNGSA,A,3,76,86,85,69,,,,,,,,,1.71,0.97,1.41*1C
1568448026071;N;$GPGSV,4,1,15,07,13,316,28,08,23,293,27,10,42,158,26,13,08,029,21*7A
1568448026071;N;$GPGSV,4,2,15,15,15,062,24,16,56,209,18,20,57,119,19,21,51,070,24*78
1568448026071;N;$GPGSV,4,3,15,26,32,186,,27,63,294,24,30,04,344,24,36,28,157,*77
1568448026072;N;$GPGSV,4,4,15,40,19,132,,41,03,106,,49,30,190,*46
1568448026072;N;$GLGSV,3,1,09,68,09,013,,69,38,057,25,70,30,129,,75,28,228,*64
1568448026072;N;$GLGSV,3,2,09,76,41,289,22,77,14,343,,84,23,078,,85,71,020,29*6B
1568448026072;N;$GLGSV,3,3,09,86,33,283,22*5B
1568448026074;N;$GNGLL,5228.97667,N,01311.49278,E,080026.00,A,A*7D
1568448027051;N;$GNRMC,080027.00,A,5228.97694,N,01311.49334,E,1.211,,140919,,,A*67
1568448027053;N;$GNVTG,,T,,M,1.211,N,2.243,K,A*39
1568448027058;N;$GNGGA,080027.00,5228.97694,N,01311.49334,E,1,12,0.99,18.7,M,42.4,M,,*73
1568448027058;N;$GNGSA,A,3,20,21,16,15,10,07,27,13,08,,,,1.73,0.99,1.42*15
1568448027059;N;$GNGSA,A,3,86,85,69,,,,,,,,,,1.73,0.99,1.42*12
1568448027059;N;$GPGSV,4,1,15,07,13,316,28,08,23,293,26,10,42,158,25,13,08,029,19*73
1568448027059;N;$GPGSV,4,2,15,15,15,062,23,16,56,209,17,20,57,119,20,21,51,070,23*7D
1568448027059;N;$GPGSV,4,3,15,26,32,186,,27,63,294,22,30,04,344,23,36,28,157,*76
1568448027059;N;$GPGSV,4,4,15,40,19,132,,41,03,106,,49,30,190,*46
1568448027060;N;$GLGSV,3,1,09,68,09,013,,69,38,057,23,70,30,129,,75,28,228,*62
1568448027060;N;$GLGSV,3,2,09,76,41,289,,77,14,343,,84,23,078,,85,71,020,29*6B
1568448027060;N;$GLGSV,3,3,09,86,33,283,21*58
1568448027062;N;$GNGLL,5228.97694,N,01311.49334,E,080027.00,A,A*79
1568448028054;N;$GNRMC,080028.00,A,5228.97733,N,01311.49367,E,0.821,,140919,,,A*6A
1568448028056;N;$GNVTG,,T,,M,0.821,N,1.520,K,A*30
1568448028060;N;$GNGGA,080028.00,5228.97733,N,01311.49367,E,1,12,0.99,18.6,M,42.4,M,,*77
1568448028061;N;$GNGSA,A,3,20,21,16,15,10,07,27,13,08,,,,1.73,0.99,1.42*15
1568448028061;N;$GNGSA,A,3,86,85,69,,,,,,,,,,1.73,0.99,1.42*12
1568448028061;N;$GPGSV,4,1,15,07,13,316,28,08,23,293,25,10,42,158,25,13,08,029,16*7F
1568448028061;N;$GPGSV,4,2,15,15,15,062,21,16,56,209,15,20,57,119,20,21,51,070,22*7C
1568448028061;N;$GPGSV,4,3,15,26,32,186,,27,63,294,21,30,04,344,22,36,28,157,*74
1568448028062;N;$GPGSV,4,4,15,40,19,132,,41,03,106,,49,30,190,*46
1568448028062;N;$GLGSV,3,1,09,68,09,013,,69,38,057,24,70,30,129,,75,28,228,*65
1568448028062;N;$GLGSV,3,2,09,76,41,289,,77,14,343,,84,23,078,,85,71,020,29*6B
1568448028062;N;$GLGSV,3,3,09,86,33,283,21*58
1568448028064;N;$GNGLL,5228.97733,N,01311.49367,E,080028.00,A,A*7C
1568448029053;N;$GNRMC,080029.00,A,5228.97740,N,01311.49401,E,0.740,,140919,,,A*60
1568448029055;N;$GNVTG,,T,,M,0.740,N,1.371,K,A*3A
1568448029062;N;$GNGGA,080029.00,5228.97740,N,01311.49401,E,1,12,1.03,18.3,M,42.4,M,,*72
1568448029063;N;$GNGSA,A,3,20,21,16,15,10,07,27,13,08,,,,1.77,1.03,1.44*15
1568448029063;N;$GNGSA,A,3,86,85,69,,,,,,,,,,1.77,1.03,1.44*12
1568448029063;N;$GPGSV,4,1,15,07,13,316,28,08,23,293,24,10,42,158,24,13,08,029,14*7D
1568448029063;N;$GPGSV,4,2,15,15,15,062,20,16,56,209,15,20,57,119,20,21,51,070,21*7E
1568448029064;N;$GPGSV,4,3,15,26,32,186,21,27,63,294,20,30,04,344,21,36,28,157,*75
1568448029064;N;$GPGSV,4,4,15,40,19,132,,41,03,106,,49,30,190,*46
1568448029064;N;$GLGSV,3,1,09,68,09,013,,69,38,057,22,70,30,129,,75,28,228,*63
1568448029064;N;$GLGSV,3,2,09,76,41,289,,77,14,343,,84,23,078,,85,71,020,29*6B
1568448029064;N;$GLGSV,3,3,09,86,33,283,21*58
1568448029066;N;$GNGLL,5228.97740,N,01311.49401,E,080029.00,A,A*7E
1568448030051;N;$GNRMC,080030.00,A,5228.97743,N,01311.49428,E,0.490,,140919,,,A*6E
1568448030054;N;$GNVTG,,T,,M,0.490,N,0.908,K,A*31
1568448030059;N;$GNGGA,080030.00,5228.97743,N,01311.49428,E,1,11,1.03,17.9,M,42.4,M,,*74
1568448030059;N;$GNGSA,A,3,20,21,16,15,10,07,27,13,08,,,,1.77,1.03,1.44*15
1568448030059;N;$GNGSA,A,3,86,85,,,,,,,,,,,1.77,1.03,1.44*1D
1568448030059;N;$GPGSV,4,1,15,07,13,316,28,08,23,293,23,10,42,158,24,13,08,029,13*7D
1568448030060;N;$GPGSV,4,2,15,15,15,062,18,16,56,209,14,20,57,119,19,21,51,070,20*7F
1568448030060;N;$GPGSV,4,3,15,26,32,186,20,27,63,294,20,30,04,344,20,36,28,157,*75
1568448030060;N;$GPGSV,4,4,15,40,19,132,,41,03,106,,49,30,190,*46
1568448030060;N;$GLGSV,3,1,09,68,09,013,,69,38,057,,70,30,129,,75,28,228,*63
1568448030060;N;$GLGSV,3,2,09,76,41,289,,77,14,343,,84,23,078,,85,71,020,28*6A
1568448030061;N;$GLGSV,3,3,09,86,33,283,21*58
1568448030062;N;$GNGLL,5228.97743,N,01311.49428,E,080030.00,A,A*7E
1568448031057;N;$GNRMC,080031.00,A,5228.97756,N,01311.49458,E,0.695,,140919,,,A*6B
1568448031059;N;$GNVTG,,T,,M,0.695,N,1.287,K,A*3B
1568448031063;N;$GNGGA,080031.00,5228.97756,N,01311.49458,E,1,11,0.88,17.5,M,42.4,M,,*78
1568448031064;N;$GNGSA,A,3,20,21,16,15,10,07,27,26,13,,,,1.54,0.88,1.27*1F
1568448031064;N;$GNGSA,A,3,86,85,,,,,,,,,,,1.54,0.88,1.27*1B
1568448031064;N;$GPGSV,4,1,15,07,13,316,29,08,23,293,,10,42,158,23,13,08,029,14*7D
1568448031064;N;$GPGSV,4,2,15,15,15,062,17,16,56,209,15,20,57,119,20,21,51,070,20*7B
1568448031064;N;$GPGSV,4,3,15,26,32,186,20,27,63,294,19,30,04,344,20,36,28,157,*7F
1568448031064;N;$GPGSV,4,4,15,40,19,132,,41,03,106,,49,30,190,*46
1568448031065;N;$GLGSV,3,1,09,68,09,013,,69,38,057,,70,30,129,,75,28,228,*63
1568448031065;N;$GLGSV,3,2,09,76,41,289,,77,14,343,,84,23,078,,85,71,020,26*64
1568448031065;N;$GLGSV,3,3,09,86,33,283,20*59
1568448031067;N;$GNGLL,5228.97756,N,01311.49458,E,080031.00,A,A*7C
1568448032051;N;$GNRMC,080032.00,A,5228.97744,N,01311.49483,E,0.571,,140919,,,A*64
1568448032054;N;$GNVTG,,T,,M,0.571,N,1.058,K,A*32
1568448032066;N;$GNGGA,080032.00,5228.97744,N,01311.49483,E,1,11,0.88,17.2,M,42.4,M,,*79
1568448032066;N;$GNGSA,A,3,20,21,16,15,10,07,27,26,13,,,,1.54,0.88,1.27*1F
1568448032067;N;$GNGSA,A,3,86,85,,,,,,,,,,,1.54,0.88,1.27*1B
1568448032067;N;$GPGSV,4,1,15,07,13,316,28,08,23,293,,10,42,158,21,13,08,029,14*7E
1568448032067;N;$GPGSV,4,2,15,15,15,062,17,16,56,209,14,20,57,119,20,21,51,070,18*71
1568448032067;N;$GPGSV,4,3,15,26,32,186,20,27,63,294,18,30,04,344,19,36,28,157,*74
1568448032067;N;$GPGSV,4,4,15,40,19,132,,41,03,106,,49,30,190,*46
1568448032068;N;$GLGSV,3,1,09,68,09,013,,69,38,057,,70,30,129,,75,28,228,*63
1568448032068;N;$GLGSV,3,2,09,76,41,289,,77,14,343,,84,23,078,,85,71,020,25*67
1568448032068;N;$GLGSV,3,3,09,86,33,283,19*53
1568448032070;N;$GNGLL,5228.97744,N,01311.49483,E,080032.00,A,A*7A
1568448033050;N;$GNRMC,080033.00,A,5228.97768,N,01311.49527,E,1.048,,140919,,,A*6A
1568448033052;N;$GNVTG,,T,,M,1.048,N,1.942,K,A*3E
1568448033057;N;$GNGGA,080033.00,5228.97768,N,01311.49527,E,1,09,0.94,17.1,M,42.4,M,,*7E
1568448033058;N;$GNGSA,A,3,20,15,10,07,27,26,13,,,,,,1.64,0.94,1.35*16
1568448033058;N;$GNGSA,A,3,86,85,,,,,,,,,,,1.64,0.94,1.35*16
1568448033058;N;$GPGSV,4,1,15,07,13,316,26,08,23,293,,10,42,158,19,13,08,029,11*7E
1568448033058;N;$GPGSV,4,2,15,15,15,062,14,16,56,209,10,20,57,119,18,21,51,070,*74
1568448033058;N;$GPGSV,4,3,15,26,32,186,19,27,63,294,17,30,04,344,17,36,28,157,*7F
1568448033059;N;$GPGSV,4,4,15,40,19,132,,41,03,106,,49,30,190,*46
1568448033059;N;$GLGSV,3,1,09,68,09,013,,69,38,057,,70,30,129,,75,28,228,*63
1568448033059;N;$GLGSV,3,2,09,76,41,289,,77,14,343,,84,23,078,,85,71,020,24*66
1568448033059;N;$GLGSV,3,3,09,86,33,283,19*53
1568448033061;N;$GNGLL,5228.97768,N,01311.49527,E,080033.00,A,A*7A
1568448034051;N;$GNRMC,080034.00,A,5228.97757,N,01311.49614,E,1.475,,140919,,,A*68
1568448034053;N;$GNVTG,,T,,M,1.475,N,2.732,K,A*3E
1568448034058;N;$GNGGA,080034.00,5228.97757,N,01311.49614,E,1,09,0.94,16.0,M,42.4,M,,*76
1568448034058;N;$GNGSA,A,3,20,15,10,07,27,26,13,,,,,,1.64,0.94,1.35*16
1568448034059;N;$GNGSA,A,3,86,85,,,,,,,,,,,1.64,0.94,1.35*16
1568448034059;N;$GPGSV,4,1,15,07,13,316,25,08,23,293,,10,42,158,17,13,08,029,10*72
1568448034059;N;$GPGSV,4,2,15,15,15,062,12,16,56,209,10,20,57,119,17,21,51,070,*7D
1568448034059;N;$GPGSV,4,3,15,26,32,186,20,27,63,294,17,30,04,344,16,36,28,157,*74
1568448034059;N;$GPGSV,4,4,15,40,19,132,,41,03,106,,49,30,190,*46
1568448034059;N;$GLGSV,3,1,09,68,09,013,,69,38,057,,70,30,129,,75,28,228,*63
1568448034060;N;$GLGSV,3,2,09,76,41,289,,77,14,343,,84,23,078,,85,71,020,24*66
1568448034060;N;$GLGSV,3,3,09,86,33,283,19*53
1568448034062;N;$GNGLL,5228.97757,N,01311.49614,E,080034.00,A,A*72
1568448035047;N;$GNRMC,080035.00,A,5228.97731,N,01311.49604,E,0.518,,140919,,,A*63
1568448035050;N;$GNVTG,,T,,M,0.518,N,0.959,K,A*34
1568448035057;N;$GNGGA,080035.00,5228.97731,N,01311.49604,E,1,07,1.62,15.9,M,42.4,M,,*7A
1568448035058;N;$GNGSA,A,3,20,10,07,27,26,,,,,,,,2.62,1.62,2.07*1F
1568448035058;N;$GNGSA,A,3,86,85,,,,,,,,,,,2.62,1.62,2.07*19
1568448035058;N;$GPGSV,4,1,15,07,13,316,25,08,23,293,,10,42,158,16,13,08,029,10*73
1568448035058;N;$GPGSV,4,2,15,15,15,062,09,16,56,209,10,20,57,119,17,21,51,070,*77
1568448035058;N;$GPGSV,4,3,15,26,32,186,20,27,63,294,16,30,04,344,16,36,28,157,*75
1568448035059;N;$GPGSV,4,4,15,40,19,132,,41,03,106,,49,30,190,*46
1568448035059;N;$GLGSV,3,1,09,68,09,013,,69,38,057,,70,30,129,,75,28,228,*63
1568448035059;N;$GLGSV,3,2,09,76,41,289,,77,14,343,,84,23,078,,85,71,020,24*66
1568448035059;N;$GLGSV,3,3,09,86,33,283,21*58
1568448035061;N;$GNGLL,5228.97731,N,01311.49604,E,080035.00,A,A*72
1568448035092;signalk-raspberry-pi-bme280;{"context":"vessels.urn:mrn:signalk:uuid:b5f70ffb-2930-4faf-8723-4b5670b6a7d3","updates":[{"source":{"label":"signalk-raspberry-pi-bme280"},"timestamp":"2019-09-14T08:00:35.092Z","values":[{"path":"environment.inside.salon.temperature","value":294.02},{"path":"environment.inside.salon.humidity","value":49.22211022694958},{"path":"environment.inside.salon.pressure","value":103240.09923588738}]}]}
1568448036046;N;$GNRMC,080036.00,A,5228.97695,N,01311.49563,E,1.218,,140919,,,A*6B
1568448036047;N;$GNVTG,,T,,M,1.218,N,2.256,K,A*34
1568448036051;N;$GNGGA,080036.00,5228.97695,N,01311.49563,E,1,08,1.04,15.8,M,42.4,M,,*7A
1568448036051;N;$GNGSA,A,3,20,10,07,27,26,13,,,,,,,1.75,1.04,1.41*19
1568448036051;N;$GNGSA,A,3,86,85,,,,,,,,,,,1.75,1.04,1.41*1D
1568448036053;N;$GPGSV,4,1,15,07,13,315,25,08,23,293,22,10,42,158,17,13,08,029,12*73
1568448036053;N;$GPGSV,4,2,15,15,15,062,09,16,56,209,08,20,57,119,18,21,51,070,*71
1568448036053;N;$GPGSV,4,3,15,26,32,186,21,27,63,294,17,30,04,344,17,36,28,157,*74
1568448036053;N;$GPGSV,4,4,15,40,19,132,,41,03,106,,49,30,190,*46
1568448036053;N;$GLGSV,3,1,09,68,09,013,,69,38,057,,70,30,129,,75,28,228,*63
1568448036054;N;$GLGSV,3,2,09,76,41,289,,77,14,343,,84,23,078,,85,71,020,24*66
1568448036054;N;$GLGSV,3,3,09,86,33,283,21*58
1568448036055;N;$GNGLL,5228.97695,N,01311.49563,E,080036.00,A,A*7C
1568448037053;N;$GNRMC,080037.00,A,5228.97694,N,01311.49551,E,0.717,,140919,,,A*61
1568448037055;N;$GNVTG,,T,,M,0.717,N,1.327,K,A*3B
1568448037059;N;$GNGGA,080037.00,5228.97694,N,01311.49551,E,1,09,1.01,15.9,M,42.4,M,,*7E
1568448037060;N;$GNGSA,A,3,20,16,10,07,27,26,13,,,,,,1.73,1.01,1.40*1C
1568448037060;N;$GNGSA,A,3,86,85,,,,,,,,,,,1.73,1.01,1.40*1F
1568448037060;N;$GPGSV,4,1,15,07,13,315,27,08,24,293,23,10,42,158,18,13,08,029,13*79
1568448037060;N;$GPGSV,4,2,15,15,15,062,09,16,56,209,11,20,57,119,20,21,51,070,*72
1568448037061;N;$GPGSV,4,3,15,26,32,186,21,27,63,294,19,30,04,344,18,36,28,157,*75
1568448037061;N;$GPGSV,4,4,15,40,19,132,,41,03,106,,49,30,190,*46
1568448037061;N;$GLGSV,3,1,09,68,09,013,,69,38,057,,70,30,129,,75,28,228,*63
1568448037061;N;$GLGSV,3,2,09,76,41,289,,77,14,343,,84,23,078,,85,71,020,26*64
1568448037061;N;$GLGSV,3,3,09,86,33,283,23*5A
1568448037063;N;$GNGLL,5228.97694,N,01311.49551,E,080037.00,A,A*7D
1568448038051;N;$GNRMC,080038.00,A,5228.97708,N,01311.49583,E,0.726,,140919,,,A*67
1568448038054;N;$GNVTG,,T,,M,0.726,N,1.344,K,A*3C
1568448038066;N;$GNGGA,080038.00,5228.97708,N,01311.49583,E,1,11,0.87,15.5,M,42.4,M,,*70
1568448038066;N;$GNGSA,A,3,20,16,15,10,07,27,26,13,08,,,,1.58,0.87,1.32*13
1568448038066;N;$GNGSA,A,3,86,85,,,,,,,,,,,1.58,0.87,1.32*1C
1568448038067;N;$GPGSV,4,1,15,07,13,315,27,08,24,293,24,10,42,158,17,13,08,029,09*7A
1568448038067;N;$GPGSV,4,2,15,15,15,062,11,16,56,209,12,20,57,119,20,21,51,070,07*7F
1568448038067;N;$GPGSV,4,3,15,26,32,186,22,27,63,294,20,30,04,344,19,36,28,157,*7D
1568448038067;N;$GPGSV,4,4,15,40,19,132,,41,03,106,,49,30,190,*46
1568448038067;N;$GLGSV,3,1,09,68,09,013,,69,38,057,,70,30,129,,75,28,228,*63
1568448038068;N;$GLGSV,3,2,09,76,41,289,,77,14,343,,84,23,078,,85,71,020,27*65
1568448038068;N;$GLGSV,3,3,09,86,33,283,25*5C
1568448038069;N;$GNGLL,5228.97708,N,01311.49583,E,080038.00,A,A*79
1568448039050;N;$GNRMC,080039.00,A,5228.97717,N,01311.49608,E,0.543,,140919,,,A*69
1568448039052;N;$GNVTG,,T,,M,0.543,N,1.005,K,A*3B
1568448039057;N;$GNGGA,080039.00,5228.97717,N,01311.49608,E,1,11,0.87,15.3,M,42.4,M,,*79
1568448039058;N;$GNGSA,A,3,20,16,15,10,07,27,26,13,08,,,,1.58,0.87,1.32*13
1568448039058;N;$GNGSA,A,3,86,85,,,,,,,,,,,1.58,0.87,1.32*1C
1568448039058;N;$GPGSV,4,1,15,07,13,315,27,08,24,293,25,10,43,158,17,13,08,029,11*73
1568448039058;N;$GPGSV,4,2,15,15,15,062,13,16,56,209,17,20,57,119,21,21,51,070,11*7E
1568448039058;N;$GPGSV,4,3,15,26,32,186,21,27,63,294,20,30,04,344,18,36,28,157,*7F
1568448039059;N;$GPGSV,4,4,15,40,19,132,,41,03,106,,49,30,190,*46
1568448039059;N;$GLGSV,3,1,09,68,09,013,,69,38,057,,70,30,129,,75,28,228,*63
1568448039063;N;$GLGSV,3,2,09,76,41,289,,77,14,343,,84,23,078,,85,71,020,26*64
1568448039063;N;$GLGSV,3,3,09,86,33,283,24*5D
1568448039065;N;$GNGLL,5228.97717,N,01311.49608,E,080039.00,A,A*76
1568448040055;N;$GNRMC,080040.00,A,5228.97755,N,01311.49620,E,0.879,,140919,,,A*6F
1568448040057;N;$GNVTG,,T,,M,0.879,N,1.628,K,A*36
1568448040062;N;$GNGGA,080040.00,5228.97755,N,01311.49620,E,1,11,0.87,15.8,M,42.4,M,,*70
1568448040062;N;$GNGSA,A,3,20,16,15,10,07,27,26,13,08,,,,1.58,0.87,1.32*13
1568448040062;N;$GNGSA,A,3,86,85,,,,,,,,,,,1.58,0.87,1.32*1C
1568448040062;N;$GPGSV,4,1,15,07,13,315,27,08,24,293,23,10,43,158,17,13,08,029,12*76
1568448040063;N;$GPGSV,4,2,15,15,15,062,16,16,56,209,12,20,57,119,22,21,51,070,15*79
1568448040063;N;$GPGSV,4,3,15,26,32,186,20,27,63,294,19,30,04,344,16,36,28,157,*7A
1568448040063;N;$GPGSV,4,4,15,40,19,132,,41,03,106,,49,30,190,*46
1568448040063;N;$GLGSV,3,1,09,68,09,013,,69,38,057,,70,30,129,,75,28,228,*63
1568448040063;N;$GLGSV,3,2,09,76,41,289,22,77,14,343,,84,23,078,,85,71,020,24*66
1568448040064;N;$GLGSV,3,3,09,86,33,283,22*5B
1568448040065;N;$GNGLL,5228.97755,N,01311.49620,E,080040.00,A,A*74
1568448041053;N;$GNRMC,080041.00,A,5228.97786,N,01311.49643,E,1.263,,140919,,,A*65
1568448041055;N;$GNVTG,,T,,M,1.263,N,2.338,K,A*31
1568448041063;N;$GNGGA,080041.00,5228.97786,N,01311.49643,E,1,12,0.83,16.1,M,42.4,M,,*77
1568448041063;N;$GNGSA,A,3,20,21,16,15,10,07,27,26,13,08,,,1.51,0.83,1.26*18
1568448041063;N;$GNGSA,A,3,86,85,,,,,,,,,,,1.51,0.83,1.26*14
1568448041063;N;$GPGSV,4,1,15,07,13,315,25,08,24,293,22,10,43,158,19,13,08,029,16*7F
1568448041064;N;$GPGSV,4,2,15,15,15,062,15,16,56,209,12,20,57,119,20,21,51,070,17*7A
1568448041064;N;$GPGSV,4,3,15,26,32,186,19,27,63,294,19,30,04,344,16,36,28,157,*70
1568448041064;N;$GPGSV,4,4,15,40,19,132,,41,03,106,,49,30,190,*46
1568448041064;N;$GLGSV,3,1,09,68,09,013,,69,38,057,,70,30,129,,75,28,228,*63
1568448041064;N;$GLGSV,3,2,09,76,41,289,,77,14,343,,84,23,078,,85,71,020,24*66
1568448041064;N;$GLGSV,3,3,09,86,33,283,20*59
1568448041066;N;$GNGLL,5228.97786,N,01311.49643,E,080041.00,A,A*7E
1568448042053;N;$GNRMC,080042.00,A,5228.97794,N,01311.49655,E,0.408,,140919,,,A*68
1568448042055;N;$GNVTG,,T,,M,0.408,N,0.755,K,A*36
1568448042060;N;$GNGGA,080042.00,5228.97794,N,01311.49655,E,1,12,0.83,16.0,M,42.4,M,,*71
1568448042060;N;$GNGSA,A,3,20,21,16,15,10,07,27,26,13,08,,,1.51,0.83,1.26*18
1568448042060;N;$GNGSA,A,3,86,85,,,,,,,,,,,1.51,0.83,1.26*14
1568448042061;N;$GPGSV,4,1,15,07,13,315,26,08,24,293,20,10,43,158,18,13,08,028,09*70
1568448042061;N;$GPGSV,4,2,15,15,15,062,16,16,56,209,10,20,57,119,17,21,51,070,18*70
1568448042061;N;$GPGSV,4,3,15,26,32,186,17,27,63,294,19,30,04,344,14,36,28,157,*7C
1568448042061;N;$GPGSV,4,4,15,40,19,132,,41,03,106,,49,30,190,*46
1568448042061;N;$GLGSV,3,1,09,68,09,013,,69,38,057,,70,30,129,,75,28,228,*63
1568448042062;N;$GLGSV,3,2,09,76,41,289,,77,14,343,,84,23,078,,85,71,020,24*66
1568448042062;N;$GLGSV,3,3,09,86,33,283,18*52
1568448042064;N;$GNGLL,5228.97794,N,01311.49655,E,080042.00,A,A*79
1568448043051;N;$GNRMC,080043.00,A,5228.97810,N,01311.49666,E,0.691,,140919,,,A*68
1568448043052;N;$GNVTG,,T,,M,0.691,N,1.279,K,A*3E
1568448043055;N;$GNGGA,080043.00,5228.97810,N,01311.49666,E,1,12,0.83,16.7,M,42.4,M,,*74
1568448043055;N;$GNGSA,A,3,20,21,16,15,10,07,27,26,13,08,,,1.51,0.83,1.26*18
1568448043056;N;$GNGSA,A,3,86,85,,,,,,,,,,,1.51,0.83,1.26*14
1568448043056;N;$GPGSV,4,1,15,07,13,315,27,08,24,293,18,10,43,158,15,13,08,028,12*7D
1568448043056;N;$GPGSV,4,2,15,15,15,062,15,16,56,209,12,20,57,119,13,21,51,070,16*7B
1568448043056;N;$GPGSV,4,3,15,26,32,186,15,27,63,294,18,30,04,344,13,36,28,157,*78
1568448043056;N;$GPGSV,4,4,15,40,19,132,,41,03,106,,49,30,190,*46
1568448043057;N;$GLGSV,3,1,09,68,09,013,,69,38,057,,70,30,129,,75,28,228,*63
1568448043057;N;$GLGSV,3,2,09,76,41,289,,77,14,343,,84,23,078,,85,71,020,23*61
1568448043057;N;$GLGSV,3,3,09,86,33,283,19*53
1568448043058;N;$GNGLL,5228.97810,N,01311.49666,E,080043.00,A,A*7B
1568448044048;N;$GNRMC,080044.00,A,5228.97798,N,01311.49693,E,0.720,,140919,,,A*61
1568448044050;N;$GNVTG,,T,,M,0.720,N,1.334,K,A*3D
1568448044054;N;$GNGGA,080044.00,5228.97798,N,01311.49693,E,1,12,0.83,16.5,M,42.4,M,,*74
1568448044054;N;$GNGSA,A,3,20,21,16,15,10,07,27,26,13,08,,,1.51,0.83,1.26*18
1568448044055;N;$GNGSA,A,3,86,85,,,,,,,,,,,1.51,0.83,1.26*14
1568448044055;N;$GPGSV,4,1,15,07,13,315,26,08,24,293,18,10,43,158,13,13,08,028,13*7B
1568448044055;N;$GPGSV,4,2,15,15,15,062,13,16,56,209,13,20,57,119,13,21,51,070,14*7E
1568448044055;N;$GPGSV,4,3,15,26,32,186,11,27,63,294,17,30,04,344,12,36,28,157,*72
1568448044055;N;$GPGSV,4,4,15,40,19,132,,41,03,106,,49,30,190,*46
1568448044056;N;$GLGSV,3,1,09,68,09,013,,69,38,057,,70,30,129,,75,28,228,*63
1568448044056;N;$GLGSV,3,2,09,76,41,289,,77,14,343,,84,23,078,,85,71,020,22*60
1568448044056;N;$GLGSV,3,3,09,86,33,283,18*52
1568448044057;N;$GNGLL,5228.97798,N,01311.49693,E,080044.00,A,A*79
1568448045049;N;$GNRMC,080045.00,A,5228.97818,N,01311.49710,E,0.729,,140919,,,A*64
1568448045050;N;$GNVTG,,T,,M,0.729,N,1.351,K,A*37
1568448045053;N;$GNGGA,080045.00,5228.97818,N,01311.49710,E,1,12,0.83,16.6,M,42.4,M,,*7B
1568448045053;N;$GNGSA,A,3,20,21,16,15,10,07,27,26,13,08,,,1.51,0.83,1.26*18
1568448045053;N;$GNGSA,A,3,86,85,,,,,,,,,,,1.51,0.83,1.26*14
1568448045053;N;$GPGSV,4,1,15,07,13,315,37,08,24,293,27,10,43,158,23,13,08,028,16*71
1568448045054;N;$GPGSV,4,2,15,15,15,062,13,16,56,209,14,20,57,119,25,21,51,070,18*70
1568448045054;N;$GPGSV,4,3,15,26,32,186,12,27,63,294,27,30,04,344,,36,28,157,*71
1568448045054;N;$GPGSV,4,4,15,40,19,132,,41,03,106,,49,30,190,*46
1568448045054;N;$GLGSV,3,1,09,68,09,013,,69,38,057,,70,30,129,,75,28,228,*63
1568448045054;N;$GLGSV,3,2,09,76,41,289,32,77,14,343,,84,23,078,,85,71,020,30*62
1568448045055;N;$GLGSV,3,3,09,86,33,283,28*51
1568448045056;N;$GNGLL,5228.97818,N,01311.49710,E,080045.00,A,A*75
1568448046054;N;$GNRMC,080046.00,A,5228.97868,N,01311.49712,E,0.067,,140919,,,A*6F
1568448046055;N;$GNVTG,,T,,M,0.067,N,0.125,K,A*3A
1568448046058;N;$GNGGA,080046.00,5228.97868,N,01311.49712,E,1,12,0.81,16.5,M,42.4,M,,*7C
1568448046058;N;$GNGSA,A,3,20,21,16,15,10,07,27,26,13,08,,,1.49,0.81,1.25*10
1568448046058;N;$GNGSA,A,3,76,86,85,69,,,,,,,,,1.49,0.81,1.25*12
1568448046058;N;$GPGSV,4,1,15,07,13,315,37,08,24,293,35,10,43,158,28,13,08,028,26*7A
1568448046058;N;$GPGSV,4,2,15,15,15,062,26,16,56,209,25,20,57,119,33,21,51,070,20*78
1568448046059;N;$GPGSV,4,3,15,26,32,186,28,27,63,294,29,30,04,344,,36,28,157,*76
1568448046059;N;$GPGSV,4,4,15,40,19,132,,41,03,106,,49,30,190,*46
1568448046059;N;$GLGSV,3,1,09,68,09,013,,69,38,057,30,70,30,129,,75,28,228,*60
1568448046059;N;$GLGSV,3,2,09,76,41,289,33,77,14,343,,84,23,078,29,85,71,020,33*6B
1568448046059;N;$GLGSV,3,3,09,86,33,283,29*50
1568448046061;N;$GNGLL,5228.97868,N,01311.49712,E,080046.00,A,A*73
1568448047047;N;$GNRMC,080047.00,A,5228.97897,N,01311.49709,E,0.375,,140919,,,A*64
1568448047049;N;$GNVTG,,T,,M,0.375,N,0.694,K,A*37
1568448047052;N;$GNGGA,080047.00,5228.97897,N,01311.49709,E,1,12,0.85,16.7,M,42.4,M,,*71
1568448047052;N;$GNGSA,A,3,20,16,15,10,07,27,26,13,08,,,,1.56,0.85,1.31*1C
1568448047052;N;$GNGSA,A,3,76,86,85,,,,,,,,,,1.56,0.85,1.31*12
1568448047052;N;$GPGSV,4,1,15,07,13,315,35,08,24,293,31,10,43,158,25,13,08,028,26*71
1568448047053;N;$GPGSV,4,2,15,15,15,062,26,16,56,209,30,20,57,119,31,21,51,070,21*7F
1568448047053;N;$GPGSV,4,3,15,26,32,186,26,27,63,294,30,30,04,344,,36,28,157,*70
1568448047053;N;$GPGSV,4,4,15,40,19,132,,41,03,106,,49,30,190,*46
1568448047054;N;$GLGSV,3,1,09,68,09,013,,69,38,057,,70,30,129,,75,28,228,*63
1568448047054;N;$GLGSV,3,2,09,76,41,289,33,77,14,343,,84,23,078,27,85,71,020,33*65
1568448047054;N;$GLGSV,3,3,09,86,33,283,28*51
1568448047057;N;$GNGLL,5228.97897,N,01311.49709,E,080047.00,A,A*78
1568448048054;N;$GNRMC,080048.00,A,5228.97932,N,01311.49755,E,0.143,,140919,,,A*6B
1568448048055;N;$GNVTG,,T,,M,0.143,N,0.266,K,A*39
1568448048058;N;$GNGGA,080048.00,5228.97932,N,01311.49755,E,1,12,0.81,16.1,M,42.4,M,,*7B
1568448048058;N;$GNGSA,A,3,20,21,16,15,10,07,27,26,13,08,,,1.49,0.81,1.25*10
1568448048058;N;$GNGSA,A,3,76,86,85,69,84,,,,,,,,1.49,0.81,1.25*1E
1568448048058;N;$GPGSV,4,1,15,07,13,315,37,08,24,293,34,10,43,158,27,13,08,028,26*74
1568448048059;N;$GPGSV,4,2,15,15,15,062,27,16,56,209,29,20,57,119,32,21,51,070,30*75
1568448048059;N;$GPGSV,4,3,15,26,32,186,27,27,63,294,32,30,04,344,,36,28,157,*73
1568448048059;N;$GPGSV,4,4,15,40,19,132,,41,03,106,,49,30,190,*46
1568448048059;N;$GLGSV,3,1,09,68,09,013,,69,38,057,31,70,30,129,32,75,28,228,21*63
1568448048059;N;$GLGSV,3,2,09,76,41,289,34,77,14,343,,84,23,078,24,85,71,020,34*66
1568448048060;N;$GLGSV,3,3,09,86,33,283,27*5E
1568448048061;N;$GNGLL,5228.97932,N,01311.49755,E,080048.00,A,A*70
1568448049050;N;$GNRMC,080049.00,A,5228.97926,N,01311.49718,E,0.256,,140919,,,A*61
1568448049052;N;$GNVTG,,T,,M,0.256,N,0.473,K,A*3C
1568448049054;N;$GNGGA,080049.00,5228.97926,N,01311.49718,E,1,12,0.85,16.3,M,42.4,M,,*70
1568448049054;N;$GNGSA,A,3,20,16,15,10,07,27,26,13,08,,,,1.56,0.85,1.31*1C
1568448049055;N;$GNGSA,A,3,76,86,85,,,,,,,,,,1.56,0.85,1.31*12
1568448049055;N;$GPGSV,4,1,15,07,13,315,30,08,24,293,23,10,43,158,26,13,08,028,24*76
1568448049055;N;$GPGSV,4,2,15,15,15,062,26,16,56,209,26,20,57,118,27,21,51,070,20*7F
1568448049055;N;$GPGSV,4,3,15,26,32,186,26,27,63,294,27,30,04,344,,36,28,157,*76
1568448049055;N;$GPGSV,4,4,15,40,19,132,,41,03,106,,49,30,190,*46
1568448049056;N;$GLGSV,3,1,09,68,09,013,,69,38,057,,70,30,129,25,75,28,228,19*6C
1568448049057;N;$GLGSV,3,2,09,76,41,289,33,77,14,343,,84,23,078,,85,71,020,30*63
1568448049057;N;$GLGSV,3,3,09,86,33,283,25*5C
1568448049058;N;$GNGLL,5228.97926,N,01311.49718,E,080049.00,A,A*7D
1568448050050;N;$GNRMC,080050.00,A,5228.97930,N,01311.49720,E,0.141,,140919,,,A*60
1568448050052;N;$GNVTG,,T,,M,0.141,N,0.261,K,A*3C
1568448050059;N;$GNGGA,080050.00,5228.97930,N,01311.49720,E,1,12,0.84,16.3,M,42.4,M,,*75
1568448050060;N;$GNGSA,A,3,20,21,16,15,10,07,26,13,08,,,,1.61,0.84,1.38*16
1568448050060;N;$GNGSA,A,3,76,86,85,,,,,,,,,,1.61,0.84,1.38*1E
1568448050060;N;$GPGSV,4,1,15,07,13,315,29,08,24,293,23,10,43,158,23,13,08,028,22*7D
1568448050061;N;$GPGSV,4,2,15,15,15,062,26,16,56,209,24,20,57,118,25,21,50,070,18*75
1568448050061;N;$GPGSV,4,3,15,26,32,186,23,27,63,294,,30,04,344,,36,28,157,*76
1568448050061;N;$GPGSV,4,4,15,40,19,132,,41,03,106,,49,30,190,*46
1568448050061;N;$GLGSV,3,1,09,68,09,013,,69,38,057,,70,30,129,22,75,28,228,17*65
1568448050062;N;$GLGSV,3,2,09,76,41,289,28,77,14,343,,84,23,078,22,85,71,020,29*61
1568448050062;N;$GLGSV,3,3,09,86,33,283,23*5A
1568448050064;N;$GNGLL,5228.97930,N,01311.49720,E,080050.00,A,A*79
1568448051053;N;$GNRMC,080051.00,A,5228.97937,N,01311.49619,E,0.082,,140919,,,A*63
1568448051054;N;$GNVTG,,T,,M,0.082,N,0.152,K,A*31
1568448051058;N;$GNGGA,080051.00,5228.97937,N,01311.49619,E,1,12,0.84,17.2,M,42.4,M,,*78
1568448051059;N;$GNGSA,A,3,20,21,16,15,10,07,26,13,08,,,,1.61,0.84,1.38*16
1568448051059;N;$GNGSA,A,3,76,86,85,75,,,,,,,,,1.61,0.84,1.38*1C
1568448051059;N;$GPGSV,4,1,15,07,13,315,39,08,24,293,30,10,43,158,31,13,08,028,29*76
1568448051059;N;$GPGSV,4,2,15,15,15,062,35,16,56,209,26,20,57,118,35,21,50,070,29*76
1568448051059;N;$GPGSV,4,3,15,26,32,186,31,27,63,294,,30,04,344,,36,28,157,*75
1568448051060;N;$GPGSV,4,4,15,40,19,132,,41,03,106,,49,30,190,*46
1568448051060;N;$GLGSV,3,1,09,68,09,013,,69,38,057,,70,30,129,29,75,28,228,25*6F
1568448051060;N;$GLGSV,3,2,09,76,41,289,33,77,14,343,,84,23,078,17,85,71,020,34*61
1568448051060;N;$GLGSV,3,3,09,86,33,283,26*5F
1568448051062;N;$GNGLL,5228.97937,N,01311.49619,E,080051.00,A,A*74
1568448052050;N;$GNRMC,080052.00,A,5228.97962,N,01311.49614,E,0.048,,140919,,,A*6B
1568448052052;N;$GNVTG,,T,,M,0.048,N,0.090,K,A*38
1568448052054;N;$GNGGA,080052.00,5228.97962,N,01311.49614,E,1,12,0.84,18.1,M,42.4,M,,*7A
1568448052055;N;$GNGSA,A,3,20,21,16,15,10,07,26,13,08,,,,1.61,0.84,1.38*16
1568448052055;N;$GNGSA,A,3,76,86,85,,,,,,,,,,1.61,0.84,1.38*1E
1568448052055;N;$GPGSV,4,1,15,07,13,315,42,08,24,293,36,10,43,158,34,13,08,028,29*79
1568448052055;N;$GPGSV,4,2,15,15,15,062,32,16,56,209,25,20,57,118,35,21,50,070,33*79
1568448052056;N;$GPGSV,4,3,15,26,32,186,32,27,63,294,,30,04,344,,36,28,157,*76
1568448052056;N;$GPGSV,4,4,15,40,19,132,,41,03,106,,49,30,190,*46
1568448052057;N;$GLGSV,3,1,09,68,09,013,,69,38,057,,70,30,129,30,75,28,228,*60
1568448052057;N;$GLGSV,3,2,09,76,41,289,34,77,14,343,,84,23,078,16,85,71,020,34*67
1568448052057;N;$GLGSV,3,3,09,86,33,283,27*5E
1568448052058;N;$GNGLL,5228.97962,N,01311.49614,E,080052.00,A,A*7A
1568448053054;N;$GNRMC,080053.00,A,5228.97965,N,01311.49515,E,0.093,,140919,,,A*69
1568448053056;N;$GNVTG,,T,,M,0.093,N,0.173,K,A*32
1568448053058;N;$GNGGA,080053.00,5228.97965,N,01311.49515,E,1,12,0.81,19.6,M,42.4,M,,*7D
1568448053059;N;$GNGSA,A,3,20,21,16,15,10,07,27,26,13,08,,,1.49,0.81,1.25*10
1568448053059;N;$GNGSA,A,3,76,86,85,,,,,,,,,,1.49,0.81,1.25*1D
1568448053059;N;$GPGSV,4,1,15,07,13,315,43,08,24,293,36,10,43,158,30,13,08,028,29*7C
1568448053059;N;$GPGSV,4,2,15,15,15,062,36,16,56,209,25,20,57,118,31,21,50,070,33*79
1568448053059;N;$GPGSV,4,3,15,26,32,186,33,27,63,294,32,30,04,344,,36,28,157,*76
1568448053060;N;$GPGSV,4,4,15,40,19,132,,41,03,106,,49,30,190,*46
1568448053060;N;$GLGSV,3,1,09,68,09,013,,69,38,057,,70,30,129,30,75,28,228,28*6A
1568448053060;N;$GLGSV,3,2,09,76,41,289,34,77,14,343,25,84,23,078,,85,71,020,33*60
1568448053060;N;$GLGSV,3,3,09,86,33,283,28*51
1568448053061;N;$GNGLL,5228.97965,N,01311.49515,E,080053.00,A,A*7E
1568448054052;N;$GNRMC,080054.00,A,5228.97961,N,01311.49493,E,0.071,,140919,,,A*69
1568448054053;N;$GNVTG,,T,,M,0.071,N,0.132,K,A*3B
1568448054057;N;$GNGGA,080054.00,5228.97961,N,01311.49493,E,1,12,0.81,19.7,M,42.4,M,,*70
1568448054058;N;$GNGSA,A,3,20,21,16,15,10,07,27,26,13,08,,,1.49,0.81,1.25*10
1568448054058;N;$GNGSA,A,3,76,86,85,,,,,,,,,,1.49,0.81,1.25*1D
1568448054058;N;$GPGSV,4,1,15,07,13,315,35,08,24,293,28,10,43,158,29,13,08,028,27*74
1568448054058;N;$GPGSV,4,2,15,15,15,062,29,16,56,209,23,20,57,118,30,21,50,070,26*74
1568448054059;N;$GPGSV,4,3,15,26,32,186,28,27,63,294,27,30,04,344,,36,28,157,*78
1568448054059;N;$GPGSV,4,4,15,40,19,132,,41,03,106,,49,30,190,*46
1568448054059;N;$GLGSV,3,1,09,68,09,013,,69,38,057,25,70,30,129,22,75,28,228,28*6E
1568448054059;N;$GLGSV,3,2,09,76,41,289,33,77,14,343,24,84,23,078,,85,71,020,32*67
1568448054059;N;$GLGSV,3,3,09,86,33,283,27*5E
1568448054061;N;$GNGLL,5228.97961,N,01311.49493,E,080054.00,A,A*72
1568448055052;N;$GNRMC,080055.00,A,5228.97958,N,01311.49478,E,0.153,,140919,,,A*66
1568448055053;N;$GNVTG,,T,,M,0.153,N,0.284,K,A*34
1568448055056;N;$GNGGA,080055.00,5228.97958,N,01311.49478,E,1,12,0.81,19.6,M,42.4,M,,*7F
1568448055057;N;$GNGSA,A,3,20,21,16,15,10,07,27,26,13,08,,,1.49,0.81,1.25*10
1568448055057;N;$GNGSA,A,3,76,86,85,,,,,,,,,,1.49,0.81,1.25*1D
1568448055057;N;$GPGSV,4,1,15,07,13,315,32,08,24,293,28,10,43,158,28,13,08,028,24*71
1568448055057;N;$GPGSV,4,2,15,15,15,062,26,16,56,209,22,20,57,118,30,21,50,070,27*7B
1568448055057;N;$GPGSV,4,3,15,26,32,186,26,27,63,294,25,30,04,344,,36,28,157,*74
1568448055058;N;$GPGSV,4,4,15,40,19,132,,41,03,106,,49,30,190,*46
1568448055058;N;$GLGSV,3,1,09,68,09,013,,69,38,057,,70,30,129,18,75,28,228,15*6E
1568448055058;N;$GLGSV,3,2,09,76,41,289,32,77,14,343,22,84,23,078,,85,71,020,31*63
1568448055058;N;$GLGSV,3,3,09,86,33,283,27*5E
1568448055060;N;$GNGLL,5228.97958,N,01311.49478,E,080055.00,A,A*7C
1568448056050;N;$GNRMC,080056.00,A,5228.97948,N,01311.49450,E,0.347,,140919,,,A*69
1568448056051;N;$GNVTG,,T,,M,0.347,N,0.643,K,A*3C
1568448056054;N;$GNGGA,080056.00,5228.97948,N,01311.49450,E,1,11,1.06,19.7,M,42.4,M,,*7B
1568448056054;N;$GNGSA,A,3,20,21,16,15,10,07,13,08,,,,,1.92,1.06,1.60*18
1568448056054;N;$GNGSA,A,3,76,86,85,,,,,,,,,,1.92,1.06,1.60*14
1568448056054;N;$GPGSV,4,1,15,07,13,315,35,08,24,293,32,10,43,158,29,13,08,028,23*7B
1568448056055;N;$GPGSV,4,2,15,15,15,062,30,16,56,209,21,20,57,118,23,21,50,070,28*72
1568448056055;N;$GPGSV,4,3,15,26,32,186,,27,64,294,,30,04,344,,36,28,157,*70
1568448056055;N;$GPGSV,4,4,15,40,19,132,,41,03,106,,49,30,190,*46
1568448056055;N;$GLGSV,3,1,09,68,09,013,,69,38,057,,70,30,129,,75,28,228,*63
1568448056055;N;$GLGSV,3,2,09,76,41,289,32,77,14,343,23,84,23,078,,85,71,020,32*61
1568448056056;N;$GLGSV,3,3,09,86,33,283,27*5E
1568448056057;N;$GNGLL,5228.97948,N,01311.49450,E,080056.00,A,A*74
1568448057053;N;$GNRMC,080057.00,A,5228.97947,N,01311.49416,E,0.032,,140919,,,A*64
1568448057054;N;$GNVTG,,T,,M,0.032,N,0.059,K,A*30
1568448057057;N;$GNGGA,080057.00,5228.97947,N,01311.49416,E,1,12,0.81,19.5,M,42.4,M,,*78
1568448057057;N;$GNGSA,A,3,20,21,16,15,10,07,27,26,13,08,,,1.49,0.81,1.25*10
1568448057058;N;$GNGSA,A,3,76,86,85,,,,,,,,,,1.49,0.81,1.25*1D
1568448057058;N;$GPGSV,4,1,15,07,13,315,39,08,24,293,37,10,43,158,29,13,08,028,25*74
1568448057058;N;$GPGSV,4,2,15,15,15,062,30,16,56,209,23,20,57,118,33,21,50,070,36*7E
1568448057058;N;$GPGSV,4,3,15,26,32,186,32,27,64,294,29,30,04,344,,36,28,157,*7A
1568448057058;N;$GPGSV,4,4,15,40,19,132,,41,03,106,,49,30,190,33*46
1568448057059;N;$GLGSV,3,1,09,68,09,013,,69,38,057,,70,30,129,,75,28,228,*63
1568448057059;N;$GLGSV,3,2,09,76,41,289,34,77,14,343,21,84,23,078,,85,71,020,32*65
1568448057059;N;$GLGSV,3,3,09,86,33,283,27*5E
1568448057060;N;$GNGLL,5228.97947,N,01311.49416,E,080057.00,A,A*78
1568448058052;N;$GNRMC,080058.00,A,5228.97956,N,01311.49376,E,0.108,,140919,,,A*62
1568448058053;N;$GNVTG,,T,,M,0.108,N,0.201,K,A*37
1568448058057;N;$GNGGA,080058.00,5228.97956,N,01311.49376,E,1,12,0.81,20.6,M,42.4,M,,*7F
1568448058058;N;$GNGSA,A,3,20,21,16,15,10,07,27,26,13,08,,,1.49,0.81,1.25*10
1568448058058;N;$GNGSA,A,3,76,86,85,,,,,,,,,,1.49,0.81,1.25*1D
1568448058058;N;$GPGSV,4,1,15,07,13,315,41,08,24,293,37,10,43,158,34,13,08,028,27*75
1568448058058;N;$GPGSV,4,2,15,15,15,062,30,16,56,209,30,20,57,118,35,21,50,070,36*7A
1568448058059;N;$GPGSV,4,3,15,26,32,186,31,27,64,294,33,30,04,344,,36,28,157,*72
1568448058059;N;$GPGSV,4,4,15,40,19,132,,41,03,106,,49,30,190,33*46
1568448058059;N;$GLGSV,3,1,09,68,09,013,,69,38,057,,70,30,129,,75,28,228,*63
1568448058060;N;$GLGSV,3,2,09,76,41,289,37,77,14,343,21,84,23,078,,85,71,020,33*67
1568448058060;N;$GLGSV,3,3,09,86,33,283,29*50
1568448058062;N;$GNGLL,5228.97956,N,01311.49376,E,080058.00,A,A*76
1568448059052;N;$GNRMC,080059.00,A,5228.97952,N,01311.49370,E,0.073,,140919,,,A*6C
1568448059053;N;$GNVTG,,T,,M,0.073,N,0.135,K,A*3E
1568448059056;N;$GNGGA,080059.00,5228.97952,N,01311.49370,E,1,12,0.84,20.5,M,42.4,M,,*7A
1568448059057;N;$GNGSA,A,3,20,21,16,15,10,07,27,26,13,08,,,1.61,0.84,1.38*13
1568448059057;N;$GNGSA,A,3,76,86,85,,,,,,,,,,1.61,0.84,1.38*1E
1568448059057;N;$GPGSV,4,1,15,07,13,315,35,08,24,293,30,10,43,158,29,13,08,028,26*7C
1568448059057;N;$GPGSV,4,2,15,15,15,062,25,16,56,209,23,20,57,118,29,21,50,070,29*7F
1568448059057;N;$GPGSV,4,3,15,26,32,186,25,27,64,294,29,30,05,344,,36,28,157,*7D
1568448059057;N;$GPGSV,4,4,15,40,19,132,,41,03,106,,49,30,190,29*4D
1568448059058;N;$GLGSV,3,1,09,68,09,013,,69,38,057,,70,30,129,,75,28,228,*63
1568448059058;N;$GLGSV,3,2,09,76,41,289,35,77,14,343,20,84,23,078,,85,71,020,33*64
1568448059058;N;$GLGSV,3,3,09,86,33,283,29*50
1568448059059;N;$GNGLL,5228.97952,N,01311.49370,E,080059.00,A,A*75
1568448060047;N;$GNRMC,080100.00,A,5228.97952,N,01311.49375,E,0.547,,140919,,,A*66
1568448060049;N;$GNVTG,,T,,M,0.547,N,1.012,K,A*39
1568448060051;N;$GNGGA,080100.00,5228.97952,N,01311.49375,E,1,10,0.93,20.2,M,42.4,M,,*71
1568448060051;N;$GNGSA,A,3,21,16,15,07,26,13,08,,,,,,1.71,0.93,1.43*1E
1568448060052;N;$GNGSA,A,3,76,86,85,,,,,,,,,,1.71,0.93,1.43*15
1568448060052;N;$GPGSV,4,1,15,07,13,315,30,08,24,293,25,10,43,158,,13,08,028,22*72
1568448060052;N;$GPGSV,4,2,15,15,15,062,22,16,56,209,21,20,57,118,,21,50,070,27*7F
1568448060052;N;$GPGSV,4,3,15,26,32,186,23,27,64,294,,30,05,344,,36,28,157,*70
1568448060052;N;$GPGSV,4,4,15,40,19,132,,41,03,106,,49,30,190,*46
1568448060052;N;$GLGSV,3,1,09,68,09,013,,69,38,057,,70,30,129,,75,28,228,*63
1568448060053;N;$GLGSV,3,2,09,76,41,289,30,77,14,343,19,84,23,078,,85,71,020,31*69
1568448060053;N;$GLGSV,3,3,09,86,33,283,27*5E
1568448060054;N;$GNGLL,5228.97952,N,01311.49375,E,080100.00,A,A*7D
1568448061057;N;$GNRMC,080101.00,A,5228.97959,N,01311.49371,E,0.378,,140919,,,A*62
1568448061058;N;$GNVTG,,T,,M,0.378,N,0.699,K,A*37
1568448061061;N;$GNGGA,080101.00,5228.97959,N,01311.49371,E,1,11,0.91,19.9,M,42.4,M,,*7D
1568448061061;N;$GNGSA,A,3,21,16,15,07,27,26,13,08,,,,,1.58,0.91,1.29*1E
1568448061061;N;$GNGSA,A,3,76,86,85,,,,,,,,,,1.58,0.91,1.29*10
1568448061061;N;$GPGSV,4,1,15,07,13,315,37,08,24,293,35,10,43,158,,13,08,028,29*7F
1568448061062;N;$GPGSV,4,2,15,15,15,062,29,16,56,209,33,20,57,118,,21,50,070,30*71
1568448061062;N;$GPGSV,4,3,15,26,32,186,24,27,64,294,32,30,05,344,,36,28,157,*76
1568448061062;N;$GPGSV,4,4,15,40,19,132,29,41,03,106,,49,30,190,30*4E
1568448061062;N;$GLGSV,3,1,09,68,09,013,,69,38,057,,70,30,129,,75,28,228,*63
1568448061062;N;$GLGSV,3,2,09,76,41,289,32,77,14,343,19,84,23,078,,85,71,020,30*6A
1568448061063;N;$GLGSV,3,3,09,86,33,283,26*5F
